
$GPGGA,220547.0,4532.010554,N,12241.158621,W,1,06,0.8,33.0,M,-18.0,M,,*5A

$PQXFI,220547.0,4532.010554,N,12241.158621,W,33.0,11.84,12.35,0.44*4A

$GNGNS,220547.0,4532.010554,N,12241.158621,W,AA,12,0.8,33.0,-18.0,,*6B

$GPVTG,83.3,T,83.3,M,0.0,N,0.0,K,A*23

$GPRMC,220547.0,A,4532.010554,N,12241.158621,W,0.0,83.3,290317,0.0,E,A*2F

$GPGSA,A,2,07,08,09,13,28,30,,,,,,,1.1,0.8,0.8*3E

$GNGSA,A,2,07,08,09,13,28,30,,,,,,,1.1,0.8,0.8*20

$GNGSA,A,2,70,71,72,73,81,82,,,,,,,1.1,0.8,0.8*2E

$GPGSV,3,1,12,05,14.8,260.2,16.6,07,46.4,95.6,31.7,08,31.6,53.4,25.6,09,15.5,160.3,18.7*74

$GPGSV,3,2,12,13,32.3,309.4,32.4,15,2.8,322.0,19.2,17,10.5,182.8,17.4,20,7.7,308.0,17.2*79

$GPGSV,3,3,12,28,67.5,243.3,34.9,30,79.5,8.4,15.6,11,19.7,102.7,,27,3.5,30.9,*78

$GLGSV,3,1,10,70,21.1,213.8,20.4,82,39.4,85.8,23.2,73,55.5,312.2,29.2,80,51.3,50.6,16.6*68

$GLGSV,3,2,10,81,20.4,29.5,21.3,71,40.8,271.4,30.0,72,20.4,327.7,25.2,74,5.6,275.6,*72

$GLGSV,3,3,10,79,1.4,81.6,,83,18.3,143.4,*63

$GPGGA,220548.0,4532.010553,N,12241.158624,W,1,06,0.8,33.0,M,-18.0,M,,*57

$PQXFI,220548.0,4532.010553,N,12241.158624,W,33.0,11.81,12.27,0.44*41

$GNGNS,220548.0,4532.010553,N,12241.158624,W,AA,12,0.8,33.0,-18.0,,*66

$GPVTG,83.3,T,83.3,M,0.0,N,0.0,K,A*23

$GPRMC,220548.0,A,4532.010553,N,12241.158624,W,0.0,83.3,290317,0.0,E,A*22

$GPGSA,A,2,07,08,09,13,28,30,,,,,,,1.1,0.8,0.8*3E

$GNGSA,A,2,07,08,09,13,28,30,,,,,,,1.1,0.8,0.8*20

$GNGSA,A,2,70,71,72,73,81,82,,,,,,,1.1,0.8,0.8*2E

$GPGSV,3,1,12,05,14.8,260.2,16.6,07,46.4,95.6,31.7,08,31.6,53.4,26.2,09,15.5,160.3,18.7*73

$GPGSV,3,2,12,13,32.3,309.4,32.0,15,2.8,322.0,19.2,17,10.5,182.8,17.4,20,7.7,308.0,15.7*7A

$GPGSV,3,3,12,28,67.5,243.3,35.2,30,79.5,8.4,15.6,11,19.7,102.7,,27,3.5,30.9,*72

$GLGSV,3,1,10,70,21.1,213.8,21.0,82,39.4,85.8,22.1,73,55.5,312.2,29.6,80,51.3,50.6,16.6*6B

$GLGSV,3,2,10,81,20.4,29.5,19.4,71,40.8,271.4,30.3,72,20.4,327.7,24.2,74,5.6,275.6,*7C

$GLGSV,3,3,10,79,1.4,81.6,,83,18.3,143.4,*63

$GPGGA,220549.0,4532.010558,N,12241.158623,W,1,05,0.8,33.0,M,-18.0,M,,*59

$PQXFI,220549.0,4532.010558,N,12241.158623,W,33.0,11.81,12.32,0.43*4F

$GNGNS,220549.0,4532.010558,N,12241.158623,W,AA,11,0.8,33.0,-18.0,,*68

$GPVTG,83.3,T,83.3,M,0.0,N,0.0,K,A*23

$GPRMC,220549.0,A,4532.010558,N,12241.158623,W,0.0,83.3,290317,0.0,E,A*2F

$GPGSA,A,2,07,08,09,13,28,,,,,,,,1.1,0.8,0.8*3D

$GNGSA,A,2,07,08,09,13,28,,,,,,,,1.1,0.8,0.8*23

$GNGSA,A,2,70,71,72,73,81,82,,,,,,,1.1,0.8,0.8*2E

$GPGSV,3,1,12,05,14.8,260.2,16.6,07,46.4,95.6,31.1,08,31.6,53.4,24.8,09,15.5,160.3,18.7*7D

$GPGSV,3,2,12,13,32.3,309.4,32.3,15,2.8,322.0,19.2,17,10.5,182.8,17.4,20,7.7,308.0,15.7*79

$GPGSV,3,3,12,28,67.5,243.3,34.9,30,79.5,8.4,15.6,11,19.7,102.7,,27,3.5,30.9,*78

$GLGSV,3,1,10,70,21.1,213.8,21.6,82,39.4,85.8,23.0,73,55.5,312.2,29.6,80,51.3,50.6,16.6*6D

$GLGSV,3,2,10,81,20.4,29.5,19.4,71,40.8,271.4,30.7,72,20.4,327.7,24.9,74,5.6,275.6,*73

$GLGSV,3,3,10,79,1.4,81.6,,83,18.3,143.4,*63

$GPGGA,220550.0,4532.010557,N,12241.158622,W,1,05,0.8,33.0,M,-18.0,M,,*5F

$PQXFI,220550.0,4532.010557,N,12241.158622,W,33.0,11.59,11.62,0.44*4D

$GNGNS,220550.0,4532.010557,N,12241.158622,W,AA,11,0.8,33.0,-18.0,,*6E

$GPVTG,83.3,T,83.3,M,0.0,N,0.0,K,A*23

$GPRMC,220550.0,A,4532.010557,N,12241.158622,W,0.0,83.3,290317,0.0,E,A*29

$GPGSA,A,2,07,08,09,13,28,,,,,,,,1.1,0.8,0.8*3D

$GNGSA,A,2,07,08,09,13,28,,,,,,,,1.1,0.8,0.8*23

$GNGSA,A,2,70,71,72,73,81,82,,,,,,,1.1,0.8,0.8*2E

$GPGSV,3,1,12,05,14.8,260.2,16.6,07,46.4,95.6,31.0,08,31.6,53.4,24.6,09,15.5,160.3,18.7*72

$GPGSV,3,2,12,13,32.3,309.4,32.2,15,2.8,322.0,19.3,17,10.5,182.8,17.3,20,7.7,308.0,15.7*7E

$GPGSV,3,3,12,28,67.5,243.3,35.2,30,79.5,8.4,15.6,11,19.7,102.7,,27,3.5,30.9,*72

$GLGSV,3,1,10,70,21.1,213.8,20.2,82,39.4,85.8,23.3,73,55.5,312.2,29.3,80,51.3,50.6,16.2*6A

$GLGSV,3,2,10,81,20.4,29.5,19.4,71,40.8,271.4,30.5,72,20.4,327.7,24.4,74,5.6,275.6,*7C

$GLGSV,3,3,10,79,1.4,81.6,,83,18.3,143.4,*63

$GPGGA,220551.0,4532.010552,N,12241.158623,W,1,05,0.8,33.0,M,-18.0,M,,*5A

$PQXFI,220551.0,4532.010552,N,12241.158623,W,33.0,11.41,11.02,0.51*43

$GNGNS,220551.0,4532.010552,N,12241.158623,W,AA,11,0.8,33.0,-18.0,,*6B

$GPVTG,83.3,T,83.3,M,0.0,N,0.0,K,A*23

$GPRMC,220551.0,A,4532.010552,N,12241.158623,W,0.0,83.3,290317,0.0,E,A*2C

$GPGSA,A,2,07,08,09,13,28,,,,,,,,1.1,0.8,0.8*3D

$GNGSA,A,2,07,08,09,13,28,,,,,,,,1.1,0.8,0.8*23

$GNGSA,A,2,70,71,72,73,81,82,,,,,,,1.1,0.8,0.8*2E

$GPGSV,3,1,12,05,14.8,260.2,16.6,07,46.4,95.6,31.2,08,31.6,53.4,26.1,09,15.5,160.3,18.7*75

$GPGSV,3,2,12,13,32.3,309.4,32.7,15,2.8,322.0,19.3,17,10.5,182.8,17.3,20,7.7,308.0,15.7*7B

$GPGSV,3,3,12,28,67.5,243.3,35.2,30,79.5,8.4,15.6,11,19.7,102.7,,27,3.5,30.9,*72

$GLGSV,3,1,10,70,21.1,213.8,21.8,82,39.4,85.8,22.9,73,55.5,312.2,30.5,80,51.3,50.6,16.2*64

$GLGSV,3,2,10,81,20.4,29.5,19.4,71,40.8,271.4,31.0,72,20.4,327.7,24.8,74,5.6,275.6,*74

$GLGSV,3,3,10,79,1.4,81.6,,83,18.3,143.4,*63

$GPGGA,220552.0,4532.010558,N,12241.158623,W,1,05,0.8,33.0,M,-18.0,M,,*53

$PQXFI,220552.0,4532.010558,N,12241.158623,W,33.0,11.37,11.02,0.40*4B

$GNGNS,220552.0,4532.010558,N,12241.158623,W,AA,11,0.8,33.0,-18.0,,*62

$GPVTG,83.3,T,83.3,M,0.0,N,0.0,K,A*23

$GPRMC,220552.0,A,4532.010558,N,12241.158623,W,0.0,83.3,290317,0.0,E,A*25

$GPGSA,A,2,07,08,09,13,28,,,,,,,,1.1,0.8,0.8*3D

$GNGSA,A,2,07,08,09,13,28,,,,,,,,1.1,0.8,0.8*23

$GNGSA,A,2,70,71,72,73,81,82,,,,,,,1.1,0.8,0.8*2E

$GPGSV,3,1,12,05,14.8,260.2,16.6,07,46.4,95.6,30.7,08,31.6,53.4,24.9,09,15.5,160.3,18.7*7B

$GPGSV,3,2,12,13,32.3,309.4,32.3,15,2.8,322.0,19.5,17,10.5,182.8,17.3,20,7.7,308.0,15.7*79

$GPGSV,3,3,12,28,67.5,243.3,35.2,30,79.5,8.4,15.6,11,19.7,102.7,,27,3.5,30.9,*72

$GLGSV,3,1,10,70,21.1,213.8,21.6,82,39.4,85.8,21.8,73,55.5,312.2,29.7,80,51.3,50.6,19.2*6D

$GLGSV,3,2,10,81,20.4,29.5,19.4,71,40.8,271.4,30.6,72,20.4,327.7,24.8,74,5.6,275.6,*73

$GLGSV,3,3,10,79,1.4,81.6,,83,18.3,143.4,*63

$GPGGA,220553.0,4532.010561,N,12241.158622,W,1,04,0.9,33.0,M,-18.0,M,,*59

$PQXFI,220553.0,4532.010561,N,12241.158622,W,33.0,11.45,11.23,0.43*44

$GNGNS,220553.0,4532.010561,N,12241.158622,W,AA,10,0.9,33.0,-18.0,,*68

$GPVTG,83.3,T,83.3,M,0.0,N,0.0,K,A*23

$GPRMC,220553.0,A,4532.010561,N,12241.158622,W,0.0,83.3,290317,0.0,E,A*2F

$GPGSA,A,2,07,08,13,28,,,,,,,,,1.2,0.9,0.9*37

$GNGSA,A,2,07,08,13,28,,,,,,,,,1.2,0.9,0.9*29

$GNGSA,A,2,70,71,72,73,81,82,,,,,,,1.2,0.9,0.9*2D

$GPGSV,3,1,12,05,14.8,260.2,16.6,07,46.4,95.6,30.0,08,31.6,53.4,25.5,09,15.5,160.3,18.7*71

$GPGSV,3,2,12,13,32.3,309.4,32.4,15,2.8,322.0,19.5,17,10.5,182.8,17.3,20,7.7,308.0,15.7*7E

$GPGSV,3,3,12,28,67.5,243.3,35.2,30,79.5,8.4,15.6,11,19.7,102.7,,27,3.5,30.9,*72

$GLGSV,3,1,10,70,21.1,213.8,23.6,82,39.4,85.8,22.0,73,55.5,312.2,29.4,80,51.3,50.6,19.2*67

$GLGSV,3,2,10,81,20.4,29.5,15.5,71,40.8,271.4,30.4,72,20.4,327.7,24.4,74,5.6,275.6,*70

$GLGSV,3,3,10,79,1.4,81.6,,83,18.3,143.4,*63

$GPGGA,220554.0,4532.010565,N,12241.158620,W,1,04,0.9,33.1,M,-18.0,M,,*59

$PQXFI,220554.0,4532.010565,N,12241.158620,W,33.1,11.53,11.40,0.45*40

$GNGNS,220554.0,4532.010565,N,12241.158620,W,AA,10,0.9,33.1,-18.0,,*68

$GPVTG,83.3,T,83.3,M,0.0,N,0.0,K,A*23

$GPRMC,220554.0,A,4532.010565,N,12241.158620,W,0.0,83.3,290317,0.0,E,A*2E

$GPGSA,A,2,07,08,13,28,,,,,,,,,1.2,0.9,0.9*37

$GNGSA,A,2,07,08,13,28,,,,,,,,,1.2,0.9,0.9*29

$GNGSA,A,2,70,71,72,73,81,82,,,,,,,1.2,0.9,0.9*2D

$GPGSV,3,1,12,05,14.8,260.2,16.6,07,46.4,95.6,30.0,08,31.6,53.4,25.6,09,15.5,160.3,18.7*72

$GPGSV,3,2,12,13,32.3,309.4,32.6,15,2.8,322.0,19.5,17,10.5,182.8,17.3,20,7.7,308.0,15.7*7C

$GPGSV,3,3,12,28,67.5,243.3,35.1,30,79.5,8.4,15.6,11,19.7,102.7,,27,3.5,30.9,*71

$GLGSV,3,1,10,70,21.1,213.8,21.2,82,39.4,85.8,23.1,73,55.5,312.2,29.9,80,51.3,50.6,19.2*6C

$GLGSV,3,2,10,81,20.4,29.5,15.5,71,40.8,271.4,31.2,72,20.4,327.7,25.3,74,5.6,275.6,*71

$GLGSV,3,3,10,79,1.4,81.6,,83,18.3,143.4,*63

$GPGGA,220555.0,4532.010566,N,12241.158613,W,1,04,0.9,33.1,M,-18.0,M,,*5B

$PQXFI,220555.0,4532.010566,N,12241.158613,W,33.1,11.54,11.42,0.40*42

$GNGNS,220555.0,4532.010566,N,12241.158613,W,AA,10,0.9,33.1,-18.0,,*6A

$GPVTG,83.3,T,83.3,M,0.0,N,0.0,K,A*23

$GPRMC,220555.0,A,4532.010566,N,12241.158613,W,0.0,83.3,290317,0.0,E,A*2C

$GPGSA,A,2,07,08,13,28,,,,,,,,,1.2,0.9,0.9*37

$GNGSA,A,2,07,08,13,28,,,,,,,,,1.2,0.9,0.9*29

$GNGSA,A,2,70,71,72,73,81,82,,,,,,,1.2,0.9,0.9*2D

$GPGSV,3,1,12,05,14.8,260.2,16.6,07,46.4,95.6,29.6,08,31.6,53.4,23.8,09,15.5,160.3,18.7*74

$GPGSV,3,2,12,13,32.3,309.4,32.3,15,2.8,322.0,19.5,17,10.5,182.8,17.7,20,7.7,308.0,15.7*7D

$GPGSV,3,3,12,28,67.5,243.3,35.5,30,79.5,8.4,15.6,11,19.7,102.7,,27,3.5,30.9,*75

$GLGSV,3,1,10,70,21.1,213.8,21.2,82,39.4,85.8,21.3,73,55.5,312.2,29.9,80,51.3,50.6,18.0*6F

$GLGSV,3,2,10,81,20.4,29.5,19.4,71,40.8,271.4,30.2,72,20.4,327.7,23.3,74,5.6,275.6,*7B

$GLGSV,3,3,10,79,1.4,81.6,,83,18.3,143.4,*63

$GPGGA,220556.0,4532.010563,N,12241.158611,W,1,04,0.9,33.1,M,-18.0,M,,*5F

$PQXFI,220556.0,4532.010563,N,12241.158611,W,33.1,11.42,10.95,0.45*4F

$GNGNS,220556.0,4532.010563,N,12241.158611,W,AA,10,0.9,33.1,-18.0,,*6E

$GPVTG,83.3,T,83.3,M,0.0,N,0.0,K,A*23

$GPRMC,220556.0,A,4532.010563,N,12241.158611,W,0.0,83.3,290317,0.0,E,A*28

$GPGSA,A,2,07,08,13,28,,,,,,,,,1.2,0.9,0.9*37

$GNGSA,A,2,07,08,13,28,,,,,,,,,1.2,0.9,0.9*29

$GNGSA,A,2,70,71,72,73,81,82,,,,,,,1.2,0.9,0.9*2D

$GPGSV,3,1,12,05,14.8,260.2,16.6,07,46.4,95.6,29.4,08,31.6,53.4,24.9,09,15.5,160.3,18.7*70

$GPGSV,3,2,12,13,32.3,309.4,32.3,15,2.8,322.0,18.9,17,10.5,182.8,17.7,20,7.7,308.0,15.7*70

$GPGSV,3,3,12,28,67.5,243.3,35.4,30,79.5,8.4,15.6,11,19.7,102.7,,27,3.5,30.9,*74

$GLGSV,3,1,10,70,21.1,213.8,21.6,82,39.4,85.8,22.1,73,55.5,312.2,29.4,80,51.3,50.6,18.0*67

$GLGSV,3,2,10,81,20.4,29.5,19.4,71,40.8,271.4,31.1,72,20.4,327.7,24.7,74,5.6,275.6,*7A

$GLGSV,3,3,10,79,1.4,81.6,,83,18.3,143.4,*63

$GPGGA,220557.0,4532.010564,N,12241.158609,W,1,04,0.9,33.1,M,-18.0,M,,*50

$PQXFI,220557.0,4532.010564,N,12241.158609,W,33.1,11.32,10.53,0.45*4D

$GNGNS,220557.0,4532.010564,N,12241.158609,W,AA,10,0.9,33.1,-18.0,,*61

$GPVTG,83.3,T,83.3,M,0.0,N,0.0,K,A*23

$GPRMC,220557.0,A,4532.010564,N,12241.158609,W,0.0,83.3,290317,0.0,E,A*27

$GPGSA,A,2,07,08,13,28,,,,,,,,,1.2,0.9,0.9*37

$GNGSA,A,2,07,08,13,28,,,,,,,,,1.2,0.9,0.9*29

$GNGSA,A,2,70,71,72,73,81,82,,,,,,,1.2,0.9,0.9*2D

$GPGSV,3,1,11,07,46.4,95.6,29.5,08,31.6,53.4,24.7,09,15.5,160.3,15.6,13,32.3,309.4,32.4*74

$GPGSV,3,2,11,15,2.8,322.0,21.6,17,10.5,182.8,17.7,20,7.7,308.0,15.7,28,67.5,243.3,36.2*75

$GPGSV,3,3,11,30,79.5,8.4,15.6,11,19.7,102.7,,27,3.5,30.9,*53

$GLGSV,3,1,10,70,21.1,213.8,20.9,82,39.4,85.8,22.4,73,55.5,312.2,29.4,80,51.3,50.6,18.0*6C

$GLGSV,3,2,10,81,20.4,29.5,18.6,71,40.8,271.4,31.0,72,20.4,327.7,25.1,74,5.6,275.6,*7F

$GLGSV,3,3,10,79,1.4,81.6,,83,18.3,143.4,*63

$GPGGA,220558.0,4532.010564,N,12241.158608,W,1,05,0.8,33.1,M,-18.0,M,,*5E

$PQXFI,220558.0,4532.010564,N,12241.158608,W,33.1,11.09,9.81,0.45*7C

$GNGNS,220558.0,4532.010564,N,12241.158608,W,AA,11,0.8,33.1,-18.0,,*6F

$GPVTG,83.3,T,83.3,M,0.0,N,0.0,K,A*23

$GPRMC,220558.0,A,4532.010564,N,12241.158608,W,0.0,83.3,290317,0.0,E,A*29

$GPGSA,A,2,07,08,09,13,28,,,,,,,,1.1,0.8,0.8*3D

$GNGSA,A,2,07,08,09,13,28,,,,,,,,1.1,0.8,0.8*23

$GNGSA,A,2,70,71,72,73,81,82,,,,,,,1.1,0.8,0.8*2E

$GPGSV,3,1,12,07,46.4,95.6,28.1,08,31.6,53.4,25.4,09,15.5,160.3,15.6,13,32.3,309.4,32.4*70

$GPGSV,3,2,12,15,2.8,322.0,21.6,17,10.5,182.8,17.7,20,7.7,308.0,15.7,28,67.5,243.3,35.8*7F

$GPGSV,3,3,12,30,79.5,8.4,15.6,05,14.8,260.2,,11,19.7,102.7,,27,3.5,30.9,*6E

$GLGSV,3,1,10,74,5.6,275.6,15.6,70,21.1,213.8,20.7,82,39.4,85.8,23.3,73,55.5,312.2,29.5*64

$GLGSV,3,2,10,80,51.3,50.6,18.0,81,20.4,29.5,18.6,71,40.8,271.4,30.2,72,20.4,327.7,25.1*61

$GLGSV,3,3,10,79,1.4,81.6,,83,18.3,143.4,*63

$GPGGA,220559.0,4532.010567,N,12241.158606,W,1,05,0.8,33.1,M,-18.0,M,,*52

$PQXFI,220559.0,4532.010567,N,12241.158606,W,33.1,11.14,9.78,0.47*78

$GNGNS,220559.0,4532.010567,N,12241.158606,W,AA,11,0.8,33.1,-18.0,,*63

$GPVTG,83.3,T,83.3,M,0.0,N,0.0,K,A*23

$GPRMC,220559.0,A,4532.010567,N,12241.158606,W,0.0,83.3,290317,0.0,E,A*25

$GPGSA,A,2,07,08,09,13,28,,,,,,,,1.1,0.8,0.8*3D

$GNGSA,A,2,07,08,09,13,28,,,,,,,,1.1,0.8,0.8*23

$GNGSA,A,2,70,71,72,73,81,82,,,,,,,1.1,0.8,0.8*2E

$GPGSV,3,1,12,07,46.4,95.6,27.8,08,31.6,53.4,25.5,09,15.5,160.3,15.6,13,32.3,309.4,31.9*79

$GPGSV,3,2,12,15,2.8,322.0,21.6,17,10.5,182.8,17.3,20,7.7,308.0,15.7,28,67.5,243.3,35.8*7B

$GPGSV,3,3,12,30,79.5,8.4,15.6,05,14.8,260.2,,11,19.7,102.7,,27,3.5,30.9,*6E

$GLGSV,3,1,10,74,5.6,275.6,15.5,70,21.1,213.8,20.9,82,39.4,85.8,23.6,73,55.5,312.2,29.6*6F

$GLGSV,3,2,10,80,51.3,50.6,17.2,81,20.4,29.5,19.6,71,40.8,271.4,30.2,72,20.4,327.7,24.1*6C

$GLGSV,3,3,10,79,1.4,81.6,,83,18.3,143.4,*63

$GPGGA,220600.0,4532.010566,N,12241.158602,W,1,05,0.8,33.1,M,-18.0,M,,*58

$PQXFI,220600.0,4532.010566,N,12241.158602,W,33.1,11.20,9.65,0.56*79

$GNGNS,220600.0,4532.010566,N,12241.158602,W,AA,11,0.8,33.1,-18.0,,*69

$GPVTG,83.3,T,83.3,M,0.0,N,0.0,K,A*23

$GPRMC,220600.0,A,4532.010566,N,12241.158602,W,0.0,83.3,290317,0.0,E,A*2F

$GPGSA,A,2,07,08,09,13,28,,,,,,,,1.1,0.8,0.8*3D

$GNGSA,A,2,07,08,09,13,28,,,,,,,,1.1,0.8,0.8*23

$GNGSA,A,2,70,71,72,73,81,82,,,,,,,1.1,0.8,0.8*2E

$GPGSV,3,1,12,07,46.4,95.6,27.7,08,31.6,53.4,25.4,09,15.5,160.3,15.6,13,32.3,309.4,32.1*7C

$GPGSV,3,2,12,15,2.8,322.0,18.6,17,10.5,182.8,17.3,20,7.7,308.0,15.7,28,67.5,243.3,36.1*7B

$GPGSV,3,3,12,30,79.5,8.4,15.6,05,14.8,260.2,,11,19.7,102.7,,27,3.5,30.9,*6E

$GLGSV,3,1,10,74,5.6,275.6,15.5,70,21.1,213.8,20.9,82,39.4,85.8,23.4,73,55.5,312.2,28.9*63

$GLGSV,3,2,10,80,51.3,50.6,17.2,81,20.4,29.5,22.9,71,40.8,271.4,30.4,72,20.4,327.7,25.4*69

$GLGSV,3,3,10,79,1.4,81.6,,83,18.3,143.4,*63

$GPGGA,220601.0,4532.010565,N,12241.158603,W,1,05,0.8,33.1,M,-18.0,M,,*5B

$PQXFI,220601.0,4532.010565,N,12241.158603,W,33.1,11.11,9.32,0.46*7B

$GNGNS,220601.0,4532.010565,N,12241.158603,W,AA,11,0.8,33.1,-18.0,,*6A

$GPVTG,83.3,T,83.3,M,0.0,N,0.0,K,A*23

$GPRMC,220601.0,A,4532.010565,N,12241.158603,W,0.0,83.3,290317,0.0,E,A*2C

$GPGSA,A,2,07,08,09,13,28,,,,,,,,1.1,0.8,0.8*3D

$GNGSA,A,2,07,08,09,13,28,,,,,,,,1.1,0.8,0.8*23

$GNGSA,A,2,70,71,72,73,81,82,,,,,,,1.1,0.8,0.8*2E

$GPGSV,3,1,12,07,46.4,95.6,28.0,08,31.6,53.4,25.2,09,15.5,160.3,15.6,13,32.3,309.4,32.0*73

$GPGSV,3,2,12,15,2.8,322.0,18.6,17,10.5,182.8,17.3,20,7.7,308.0,15.7,28,67.5,243.3,36.2*78

$GPGSV,3,3,12,30,79.5,8.4,15.6,05,14.8,260.2,,11,19.7,102.7,,27,3.5,30.9,*6E

$GLGSV,3,1,10,74,5.6,275.6,15.5,70,21.1,213.8,20.5,82,39.4,85.8,22.6,73,55.5,312.2,29.0*64

$GLGSV,3,2,10,80,51.3,50.6,17.2,81,20.4,29.5,22.7,71,40.8,271.4,30.9,72,20.4,327.7,24.9*66

$GLGSV,3,3,10,79,1.4,81.6,,83,18.3,143.4,*63

$GPGGA,220602.0,4532.010564,N,12241.158605,W,1,05,0.8,33.1,M,-18.0,M,,*5F

$PQXFI,220602.0,4532.010564,N,12241.158605,W,33.1,11.15,9.18,0.48*7D

$GNGNS,220602.0,4532.010564,N,12241.158605,W,AA,11,0.8,33.1,-18.0,,*6E

$GPVTG,83.3,T,83.3,M,0.0,N,0.0,K,A*23

$GPRMC,220602.0,A,4532.010564,N,12241.158605,W,0.0,83.3,290317,0.0,E,A*28

$GPGSA,A,2,07,08,09,13,28,,,,,,,,1.1,0.8,0.8*3D

$GNGSA,A,2,07,08,09,13,28,,,,,,,,1.1,0.8,0.8*23

$GNGSA,A,2,70,71,72,73,81,82,,,,,,,1.1,0.8,0.8*2E

$GPGSV,3,1,12,07,46.4,95.6,27.4,08,31.6,53.4,23.3,09,15.5,160.3,15.6,13,32.3,309.4,32.0*7F

$GPGSV,3,2,12,15,2.8,322.0,18.6,17,10.5,182.8,18.9,20,7.7,308.0,15.7,28,67.5,243.3,36.4*7B

$GPGSV,3,3,12,30,79.5,8.4,15.1,05,14.8,260.2,,11,19.7,102.7,,27,3.5,30.9,*69

$GLGSV,3,1,10,74,5.6,275.6,17.1,70,21.1,213.8,21.7,82,39.4,85.8,24.2,73,55.5,312.2,29.3*60

$GLGSV,3,2,10,80,51.3,50.6,17.4,81,20.4,29.5,23.8,71,40.8,271.4,30.8,72,20.4,327.7,24.2*64

$GLGSV,3,3,10,79,1.4,81.6,,83,18.3,143.4,*63

$GPGGA,220603.0,4532.010563,N,12241.158607,W,1,06,0.8,33.1,M,-18.0,M,,*58

$PQXFI,220603.0,4532.010563,N,12241.158607,W,33.1,11.33,9.45,0.48*75

$GNGNS,220603.0,4532.010563,N,12241.158607,W,AA,12,0.8,33.1,-18.0,,*69

$GPVTG,83.3,T,83.3,M,0.0,N,0.0,K,A*23

$GPRMC,220603.0,A,4532.010563,N,12241.158607,W,0.0,83.3,290317,0.0,E,A*2C

$GPGSA,A,2,07,08,09,13,28,30,,,,,,,1.1,0.8,0.8*3E

$GNGSA,A,2,07,08,09,13,28,30,,,,,,,1.1,0.8,0.8*20

$GNGSA,A,2,70,71,72,73,81,82,,,,,,,1.1,0.8,0.8*2E

$GPGSV,3,1,12,07,45.7,95.6,27.6,08,31.6,52.0,23.3,09,14.8,160.3,15.6,13,32.3,309.4,32.0*74

$GPGSV,3,2,12,15,2.8,322.0,19.4,17,10.5,182.8,18.9,20,7.7,308.0,15.7,28,68.9,244.7,36.2*7E

$GPGSV,3,3,12,30,79.5,14.1,15.1,05,13.4,260.2,,11,19.7,102.7,,27,3.5,30.9,*5A

$GLGSV,3,1,10,74,5.6,275.6,17.1,70,21.1,213.8,21.3,82,39.4,85.8,23.1,73,55.5,312.2,29.8*6B

$GLGSV,3,2,10,80,51.3,50.6,17.4,81,20.4,29.5,23.8,71,40.8,271.4,31.7,72,20.4,327.7,25.0*69

$GLGSV,3,3,10,79,1.4,81.6,,83,18.3,143.4,*63

$GPGGA,220604.0,4532.010566,N,12241.158607,W,1,06,0.8,33.1,M,-18.0,M,,*5A

$PQXFI,220604.0,4532.010566,N,12241.158607,W,33.1,11.15,8.88,0.48*73

$GNGNS,220604.0,4532.010566,N,12241.158607,W,AA,12,0.8,33.1,-18.0,,*6B

$GPVTG,83.3,T,83.3,M,0.0,N,0.0,K,A*23

$GPRMC,220604.0,A,4532.010566,N,12241.158607,W,0.0,83.3,290317,0.0,E,A*2E

$GPGSA,A,2,07,08,09,13,28,30,,,,,,,1.1,0.8,0.8*3E

$GNGSA,A,2,07,08,09,13,28,30,,,,,,,1.1,0.8,0.8*20

$GNGSA,A,2,70,71,72,73,81,82,,,,,,,1.1,0.8,0.8*2E

$GPGSV,3,1,12,07,45.7,95.6,28.0,08,31.6,52.0,24.1,09,14.8,160.3,15.6,13,32.3,309.4,32.3*7B

$GPGSV,3,2,12,15,2.8,322.0,19.4,17,10.5,182.8,19.7,20,7.7,308.0,15.7,28,68.9,244.7,36.1*72

$GPGSV,3,3,12,30,79.5,14.1,15.1,05,13.4,260.2,,11,19.7,102.7,,27,3.5,30.9,*5A

$GLGSV,3,1,10,74,5.6,275.6,17.1,70,21.1,213.8,22.1,82,39.4,85.8,24.1,73,55.5,312.2,29.3*66

$GLGSV,3,2,10,80,51.3,50.6,17.4,81,20.4,29.5,24.9,71,40.8,271.4,30.8,72,20.4,327.7,25.4*65

$GLGSV,3,3,10,79,1.4,81.6,,83,18.3,143.4,*63

$GPGGA,220605.0,4532.010573,N,12241.158613,W,1,05,0.9,33.1,M,-18.0,M,,*58

$PQXFI,220605.0,4532.010573,N,12241.158613,W,33.1,11.32,9.27,0.46*7C

$GNGNS,220605.0,4532.010573,N,12241.158613,W,AA,11,0.9,33.1,-18.0,,*69

$GPVTG,83.3,T,83.3,M,0.0,N,0.0,K,A*23

$GPRMC,220605.0,A,4532.010573,N,12241.158613,W,0.0,83.3,290317,0.0,E,A*2E

$GPGSA,A,2,07,08,13,28,30,,,,,,,,1.2,0.9,0.8*35

$GNGSA,A,2,07,08,13,28,30,,,,,,,,1.2,0.9,0.8*2B

$GNGSA,A,2,70,71,72,73,81,82,,,,,,,1.2,0.9,0.8*2C

$GPGSV,3,1,12,07,45.7,95.6,27.7,08,31.6,52.0,22.3,09,14.8,160.3,15.6,13,32.3,309.4,31.7*70

$GPGSV,3,2,12,15,2.8,322.0,20.0,17,10.5,182.8,21.2,20,7.7,308.0,15.7,28,68.9,244.7,35.9*79

$GPGSV,3,3,12,30,79.5,14.1,15.1,05,13.4,260.2,,11,19.7,102.7,,27,3.5,30.9,*5A

$GLGSV,3,1,10,74,5.6,275.6,17.1,70,21.1,213.8,20.9,82,39.4,85.8,24.4,73,55.5,312.2,28.8*63

$GLGSV,3,2,10,80,51.3,50.6,17.2,81,19.7,29.5,25.8,71,40.8,271.4,30.0,72,21.1,327.7,23.9*6D

$GLGSV,3,3,10,79,1.4,81.6,,83,18.3,143.4,*63

$GPGGA,220606.0,4532.010568,N,12241.158614,W,1,05,0.9,33.1,M,-18.0,M,,*56

$PQXFI,220606.0,4532.010568,N,12241.158614,W,33.1,11.44,9.37,0.48*7C

$GNGNS,220606.0,4532.010568,N,12241.158614,W,AA,11,0.9,33.1,-18.0,,*67

$GPVTG,83.3,T,83.3,M,0.0,N,0.0,K,A*23

$GPRMC,220606.0,A,4532.010568,N,12241.158614,W,0.0,83.3,290317,0.0,E,A*20

$GPGSA,A,2,07,08,13,28,30,,,,,,,,1.2,0.9,0.8*35

$GNGSA,A,2,07,08,13,28,30,,,,,,,,1.2,0.9,0.8*2B

$GNGSA,A,2,70,71,72,73,81,82,,,,,,,1.2,0.9,0.8*2C

$GPGSV,3,1,12,07,45.7,95.6,27.3,08,31.6,52.0,21.7,09,14.8,160.3,15.6,13,32.3,309.4,31.8*7C

$GPGSV,3,2,12,15,2.8,322.0,20.0,17,10.5,182.8,21.2,20,7.7,308.0,15.7,28,68.9,244.7,35.9*79

$GPGSV,3,3,12,30,79.5,14.1,15.1,05,13.4,260.2,,11,19.7,102.7,,27,3.5,30.9,*5A

$GLGSV,3,1,10,74,5.6,275.6,18.2,70,21.1,213.8,22.0,82,39.4,85.8,24.0,73,55.5,312.2,29.0*69

$GLGSV,3,2,10,80,51.3,50.6,17.2,81,19.7,29.5,26.0,71,40.8,271.4,30.1,72,21.1,327.7,25.3*6B

$GLGSV,3,3,10,79,1.4,81.6,,83,18.3,143.4,*63

$GPGGA,220607.0,4532.010567,N,12241.158613,W,1,05,0.9,33.1,M,-18.0,M,,*5F

$PQXFI,220607.0,4532.010567,N,12241.158613,W,33.1,11.47,9.20,0.57*7E

$GNGNS,220607.0,4532.010567,N,12241.158613,W,AA,11,0.9,33.1,-18.0,,*6E

$GPVTG,83.3,T,83.3,M,0.0,N,0.0,K,A*23

$GPRMC,220607.0,A,4532.010567,N,12241.158613,W,0.0,83.3,290317,0.0,E,A*29

$GPGSA,A,2,07,08,13,28,30,,,,,,,,1.2,0.9,0.8*35

$GNGSA,A,2,07,08,13,28,30,,,,,,,,1.2,0.9,0.8*2B

$GNGSA,A,2,70,71,72,73,81,82,,,,,,,1.2,0.9,0.8*2C

$GPGSV,3,1,12,07,45.7,95.6,26.6,08,31.6,52.0,21.7,09,14.8,160.3,15.8,13,32.3,309.4,32.2*7F

$GPGSV,3,2,12,15,2.8,322.0,20.0,17,10.5,182.8,19.2,20,7.7,308.0,15.7,28,68.9,244.7,36.0*78

$GPGSV,3,3,12,30,79.5,14.1,15.1,05,13.4,260.2,,11,19.7,102.7,,27,3.5,30.9,*5A

$GLGSV,3,1,10,74,5.6,275.6,18.2,70,21.1,213.8,22.0,82,39.4,85.8,22.9,73,55.5,312.2,29.2*64

$GLGSV,3,2,10,80,51.3,50.6,18.8,81,19.7,29.5,26.1,71,40.8,271.4,29.8,72,21.1,327.7,24.6*6A

$GLGSV,3,3,10,79,1.4,81.6,,83,18.3,143.4,*63

$GPGGA,220608.0,4532.010567,N,12241.158615,W,1,06,0.8,33.1,M,-18.0,M,,*54

$PQXFI,220608.0,4532.010567,N,12241.158615,W,33.1,11.50,9.09,0.58*75

$GNGNS,220608.0,4532.010567,N,12241.158615,W,AA,12,0.8,33.1,-18.0,,*65

$GPVTG,83.3,T,83.3,M,0.0,N,0.0,K,A*23

$GPRMC,220608.0,A,4532.010567,N,12241.158615,W,0.0,83.3,290317,0.0,E,A*20

$GPGSA,A,2,07,08,09,13,28,30,,,,,,,1.1,0.8,0.8*3E

$GNGSA,A,2,07,08,09,13,28,30,,,,,,,1.1,0.8,0.8*20

$GNGSA,A,2,70,71,72,73,81,82,,,,,,,1.1,0.8,0.8*2E

$GPGSV,3,1,12,07,45.7,95.6,27.4,08,31.6,52.0,20.7,09,14.8,160.3,15.8,13,32.3,309.4,32.1*7E

$GPGSV,3,2,12,15,2.8,322.0,18.2,17,10.5,182.8,19.2,20,7.7,308.0,15.7,28,68.9,244.7,36.0*71

$GPGSV,3,3,12,30,79.5,14.1,15.6,05,13.4,260.2,,11,19.7,102.7,,27,3.5,30.9,*5D

$GLGSV,3,1,10,74,5.6,275.6,18.2,70,21.1,213.8,20.1,82,39.4,85.8,22.9,73,55.5,312.2,28.6*62

$GLGSV,3,2,10,80,51.3,50.6,18.8,81,19.7,29.5,25.7,71,40.8,271.4,30.2,72,21.1,327.7,25.0*6A

$GLGSV,3,3,10,79,1.4,81.6,,83,18.3,143.4,*63

$GPGGA,220609.0,4532.010564,N,12241.158614,W,1,06,0.8,33.1,M,-18.0,M,,*57

$PQXFI,220609.0,4532.010564,N,12241.158614,W,33.1,11.41,8.79,0.56*7E

$GNGNS,220609.0,4532.010564,N,12241.158614,W,AA,12,0.8,33.1,-18.0,,*66

$GPVTG,83.3,T,83.3,M,0.0,N,0.0,K,A*23

$GPRMC,220609.0,A,4532.010564,N,12241.158614,W,0.0,83.3,290317,0.0,E,A*23

$GPGSA,A,2,07,08,09,13,28,30,,,,,,,1.1,0.8,0.8*3E

$GNGSA,A,2,07,08,09,13,28,30,,,,,,,1.1,0.8,0.8*20

$GNGSA,A,2,70,71,72,73,81,82,,,,,,,1.1,0.8,0.8*2E

$GPGSV,3,1,12,07,45.7,95.6,26.9,08,31.6,52.0,20.7,09,14.8,160.3,15.8,13,32.3,309.4,32.3*70

$GPGSV,3,2,12,15,2.8,322.0,18.2,17,10.5,182.8,20.1,28,68.9,244.7,35.6,30,79.5,14.1,15.6*79

$GPGSV,3,3,12,05,13.4,260.2,,11,19.7,102.7,,20,7.7,308.0,,27,3.5,30.9,*44

$GLGSV,3,1,10,74,5.6,275.6,18.2,70,21.1,213.8,20.1,82,39.4,85.8,22.9,73,55.5,312.2,28.5*61

$GLGSV,3,2,10,80,51.3,50.6,18.8,81,19.7,29.5,26.5,71,40.8,271.4,29.3,72,21.1,327.7,25.6*64

$GLGSV,3,3,10,79,1.4,81.6,,83,18.3,143.4,*63

$GPGGA,220610.0,4532.010559,N,12241.158614,W,1,06,0.8,33.1,M,-18.0,M,,*51

$PQXFI,220610.0,4532.010559,N,12241.158614,W,33.1,11.47,8.78,0.58*71

$GNGNS,220610.0,4532.010559,N,12241.158614,W,AA,12,0.8,33.1,-18.0,,*60

$GPVTG,83.3,T,83.3,M,0.0,N,0.0,K,A*23

$GPRMC,220610.0,A,4532.010559,N,12241.158614,W,0.0,83.3,290317,0.0,E,A*25

$GPGSA,A,2,07,08,09,13,28,30,,,,,,,1.1,0.8,0.8*3E

$GNGSA,A,2,07,08,09,13,28,30,,,,,,,1.1,0.8,0.8*20

$GNGSA,A,2,70,71,72,73,81,82,,,,,,,1.1,0.8,0.8*2E

$GPGSV,3,1,12,07,45.7,95.6,26.9,08,31.6,52.0,20.4,09,14.8,160.3,15.8,13,32.3,309.4,31.7*74

$GPGSV,3,2,12,15,2.8,322.0,18.2,17,10.5,182.8,20.1,28,68.9,244.7,35.5,30,79.5,14.1,15.6*7A

$GPGSV,3,3,12,05,13.4,260.2,,11,19.7,102.7,,20,7.7,308.0,,27,3.5,30.9,*44

$GLGSV,3,1,10,74,5.6,275.6,18.2,70,21.1,213.8,20.1,82,39.4,85.8,22.4,73,55.5,312.2,28.7*6E

$GLGSV,3,2,10,80,51.3,50.6,18.8,81,19.7,29.5,26.4,71,40.8,270.0,30.3,72,21.1,327.7,25.9*67

$GLGSV,3,3,10,79,1.4,81.6,,83,18.3,143.4,*63

$GPGGA,220611.0,4532.010558,N,12241.158612,W,1,06,0.8,33.0,M,-18.0,M,,*56

$PQXFI,220611.0,4532.010558,N,12241.158612,W,33.0,11.32,8.53,0.58*7D

$GNGNS,220611.0,4532.010558,N,12241.158612,W,AA,12,0.8,33.0,-18.0,,*67

$GPVTG,83.3,T,83.3,M,0.0,N,0.0,K,A*23

$GPRMC,220611.0,A,4532.010558,N,12241.158612,W,0.0,83.3,290317,0.0,E,A*23

$GPGSA,A,2,07,08,09,13,28,30,,,,,,,1.1,0.8,0.8*3E

$GNGSA,A,2,07,08,09,13,28,30,,,,,,,1.1,0.8,0.8*20

$GNGSA,A,2,70,71,72,73,81,82,,,,,,,1.1,0.8,0.8*2E

$GPGSV,3,1,12,07,45.7,95.6,26.5,08,31.6,52.0,20.4,09,14.8,160.3,15.8,13,32.3,309.4,31.5*7A

$GPGSV,3,2,12,15,2.8,322.0,18.2,17,10.5,182.8,19.9,28,68.9,244.7,35.3,30,79.5,14.1,15.6*7E

$GPGSV,3,3,12,05,13.4,260.2,,11,19.7,102.7,,20,7.7,308.0,,27,3.5,30.9,*44

$GLGSV,3,1,10,74,5.6,275.6,18.2,70,21.1,213.8,20.1,82,39.4,85.8,23.3,73,55.5,312.2,29.1*6F

$GLGSV,3,2,10,80,51.3,50.6,18.8,81,19.7,29.5,26.4,71,40.8,270.0,29.8,72,21.1,327.7,24.2*6E

$GLGSV,3,3,10,79,1.4,81.6,,83,18.3,143.4,*63

$GPGGA,220612.0,4532.010560,N,12241.158613,W,1,06,0.8,33.1,M,-18.0,M,,*5E

$PQXFI,220612.0,4532.010560,N,12241.158613,W,33.1,11.31,8.55,0.48*71

$GNGNS,220612.0,4532.010560,N,12241.158613,W,AA,12,0.8,33.1,-18.0,,*6F

$GPVTG,83.3,T,83.3,M,0.0,N,0.0,K,A*23

$GPRMC,220612.0,A,4532.010560,N,12241.158613,W,0.0,83.3,290317,0.0,E,A*2A

$GPGSA,A,2,07,08,09,13,28,30,,,,,,,1.1,0.8,0.8*3E

$GNGSA,A,2,07,08,09,13,28,30,,,,,,,1.1,0.8,0.8*20

$GNGSA,A,2,70,71,72,73,81,82,,,,,,,1.1,0.8,0.8*2E

$GPGSV,3,1,12,05,13.4,260.2,21.1,07,45.7,95.6,25.9,08,31.6,52.0,20.4,09,14.8,160.3,15.8*7B

$GPGSV,3,2,12,13,32.3,309.4,32.2,15,2.8,322.0,18.2,17,10.5,182.8,19.9,28,68.9,244.7,35.2*4C

$GPGSV,3,3,12,30,79.5,14.1,15.6,11,19.7,102.7,,20,7.7,308.0,,27,3.5,30.9,*61

$GLGSV,3,1,10,74,5.6,275.6,17.9,70,21.1,213.8,21.3,82,39.4,85.8,23.2,73,55.5,312.2,28.7*6E

$GLGSV,3,2,10,80,51.3,50.6,18.8,81,19.7,29.5,27.0,71,40.8,270.0,30.3,72,21.1,327.7,23.9*64

$GLGSV,3,3,10,79,1.4,81.6,,83,18.3,143.4,*63

$GPGGA,220613.0,4532.010562,N,12241.158616,W,1,07,0.7,33.1,M,-18.0,M,,*56

$PQXFI,220613.0,4532.010562,N,12241.158616,W,33.1,11.13,8.19,0.47*70

$GNGNS,220613.0,4532.010562,N,12241.158616,W,AA,13,0.7,33.1,-18.0,,*67

$GPVTG,83.3,T,83.3,M,0.0,N,0.0,K,A*23

$GPRMC,220613.0,A,4532.010562,N,12241.158616,W,0.0,83.3,290317,0.0,E,A*2C

$GPGSA,A,2,05,07,08,09,13,28,30,,,,,,1.1,0.7,0.8*34

$GNGSA,A,2,05,07,08,09,13,28,30,,,,,,1.1,0.7,0.8*2A

$GNGSA,A,2,70,71,72,73,81,82,,,,,,,1.1,0.7,0.8*21

$GPGSV,3,1,12,05,13.4,260.2,22.2,07,45.7,95.6,26.1,08,31.6,52.0,20.4,09,14.8,160.3,15.8*70

$GPGSV,3,2,12,13,32.3,309.4,32.0,15,2.8,322.0,18.2,17,10.5,182.8,19.9,28,68.9,244.7,35.6*4A

$GPGSV,3,3,12,30,79.5,14.1,15.6,11,19.7,102.7,,20,7.7,308.0,,27,3.5,30.9,*61

$GLGSV,3,1,10,74,5.6,275.6,17.9,70,21.1,213.8,21.3,82,39.4,85.8,23.2,73,55.5,312.2,28.0*69

$GLGSV,3,2,10,80,51.3,50.6,15.0,81,19.7,29.5,26.8,71,40.8,270.0,29.7,72,21.1,327.7,24.9*63

$GLGSV,3,3,10,79,1.4,81.6,,83,18.3,143.4,*63

$GPGGA,220614.0,4532.010558,N,12241.158616,W,1,07,0.7,33.0,M,-18.0,M,,*59

$PQXFI,220614.0,4532.010558,N,12241.158616,W,33.0,11.39,8.58,0.49*7C

$GNGNS,220614.0,4532.010558,N,12241.158616,W,AA,13,0.7,33.0,-18.0,,*68

$GPVTG,83.3,T,83.3,M,0.0,N,0.0,K,A*23

$GPRMC,220614.0,A,4532.010558,N,12241.158616,W,0.0,83.3,290317,0.0,E,A*22

$GPGSA,A,2,05,07,08,09,13,28,30,,,,,,1.1,0.7,0.8*34

$GNGSA,A,2,05,07,08,09,13,28,30,,,,,,1.1,0.7,0.8*2A

$GNGSA,A,2,70,71,72,73,81,82,,,,,,,1.1,0.7,0.8*21

$GPGSV,3,1,12,05,13.4,260.2,22.4,07,45.7,95.6,25.8,08,31.6,52.0,18.4,09,14.8,160.3,15.8*77

$GPGSV,3,2,12,13,32.3,309.4,31.9,15,2.8,322.0,18.2,17,10.5,182.8,20.3,28,68.9,244.7,35.0*46

$GPGSV,3,3,12,30,79.5,14.1,15.6,11,19.7,102.7,,20,7.7,308.0,,27,3.5,30.9,*61

$GLGSV,3,1,10,74,5.6,275.6,17.9,70,21.1,213.8,18.7,82,39.4,85.8,20.9,73,55.5,312.2,27.8*68

$GLGSV,3,2,10,80,51.3,50.6,15.0,81,19.7,29.5,27.9,71,40.8,270.0,29.0,72,21.1,327.7,24.7*6A

$GLGSV,3,3,10,79,1.4,81.6,,83,18.3,143.4,*63

$GPGGA,220615.0,4532.010560,N,12241.158616,W,1,06,0.9,33.0,M,-18.0,M,,*5C

$PQXFI,220615.0,4532.010560,N,12241.158616,W,33.0,11.15,8.11,0.49*75

$GNGNS,220615.0,4532.010560,N,12241.158616,W,AA,12,0.9,33.0,-18.0,,*6D

$GPVTG,83.3,T,83.3,M,0.0,N,0.0,K,A*23

$GPRMC,220615.0,A,4532.010560,N,12241.158616,W,0.0,83.3,290317,0.0,E,A*28

$GPGSA,A,2,05,07,08,13,28,30,,,,,,,1.2,0.9,0.8*30

$GNGSA,A,2,05,07,08,13,28,30,,,,,,,1.2,0.9,0.8*2E

$GNGSA,A,2,70,71,72,73,81,82,,,,,,,1.2,0.9,0.8*2C

$GPGSV,3,1,12,05,13.4,260.2,22.4,07,45.7,95.6,25.1,08,31.6,52.0,18.4,09,14.8,160.3,15.8*7E

$GPGSV,3,2,12,13,32.3,309.4,32.5,15,2.8,322.0,18.2,17,10.5,182.8,21.1,28,68.9,244.7,35.5*4F

$GPGSV,3,3,12,30,79.5,14.1,15.6,11,19.7,102.7,,20,7.7,308.0,,27,3.5,30.9,*61

$GLGSV,3,1,10,74,5.6,275.6,17.9,70,21.1,213.8,22.9,82,39.4,85.8,22.1,73,55.5,312.2,28.2*60

$GLGSV,3,2,10,80,51.3,50.6,20.1,81,19.7,29.5,26.5,71,40.8,270.0,29.5,72,21.1,327.7,24.7*65

$GLGSV,3,3,10,79,1.4,81.6,,83,18.3,143.4,*63

$GPGGA,220616.0,4532.010561,N,12241.158620,W,1,05,0.9,33.0,M,-18.0,M,,*58

$PQXFI,220616.0,4532.010561,N,12241.158620,W,33.0,11.13,8.08,0.42*77

$GNGNS,220616.0,4532.010561,N,12241.158620,W,AA,11,0.9,33.0,-18.0,,*69

$GPVTG,83.3,T,83.3,M,0.0,N,0.0,K,A*23

$GPRMC,220616.0,A,4532.010561,N,12241.158620,W,0.0,83.3,290317,0.0,E,A*2F

$GPGSA,A,2,05,07,08,13,28,,,,,,,,1.2,0.9,0.8*33

$GNGSA,A,2,05,07,08,13,28,,,,,,,,1.2,0.9,0.8*2D

$GNGSA,A,2,70,71,72,73,81,82,,,,,,,1.2,0.9,0.8*2C

$GPGSV,3,1,12,05,13.4,260.2,22.5,07,45.7,95.6,26.3,08,31.6,52.0,20.2,09,14.8,160.3,15.8*73

$GPGSV,3,2,12,13,32.3,309.4,31.6,15,2.8,322.0,15.8,17,10.5,182.8,21.1,28,68.9,244.7,35.1*4C

$GPGSV,3,3,12,30,79.5,14.1,15.6,11,19.7,102.7,,20,7.7,308.0,,27,3.5,30.9,*61

$GLGSV,3,1,10,74,5.6,275.6,17.2,70,21.1,213.8,21.2,82,39.4,85.8,22.1,73,55.5,312.2,27.4*6A

$GLGSV,3,2,10,80,51.3,50.6,20.1,81,19.7,29.5,26.9,71,40.8,270.0,30.2,72,21.1,327.7,24.1*60

$GLGSV,3,3,10,79,1.4,81.6,,83,18.3,143.4,*63

$GPGGA,220617.0,4532.010558,N,12241.158622,W,1,05,0.9,33.0,M,-18.0,M,,*51

$PQXFI,220617.0,4532.010558,N,12241.158622,W,33.0,11.27,8.27,0.57*70

$GNGNS,220617.0,4532.010558,N,12241.158622,W,AA,11,0.9,33.0,-18.0,,*60

$GPVTG,83.3,T,83.3,M,0.0,N,0.0,K,A*23

$GPRMC,220617.0,A,4532.010558,N,12241.158622,W,0.0,83.3,290317,0.0,E,A*26

$GPGSA,A,2,05,07,08,13,28,,,,,,,,1.2,0.9,0.8*33

$GNGSA,A,2,05,07,08,13,28,,,,,,,,1.2,0.9,0.8*2D

$GNGSA,A,2,70,71,72,73,81,82,,,,,,,1.2,0.9,0.8*2C

$GPGSV,3,1,12,05,13.4,260.2,21.9,07,45.7,95.6,24.9,08,31.6,52.0,20.2,09,14.8,160.3,15.8*74

$GPGSV,3,2,12,13,32.3,309.4,30.6,15,2.8,322.0,15.8,17,10.5,182.8,20.2,28,68.9,244.7,35.7*49

$GPGSV,3,3,12,30,79.5,14.1,15.6,11,19.7,102.7,,20,7.7,308.0,,27,3.5,30.9,*61

$GLGSV,3,1,10,74,6.3,275.6,17.2,70,20.4,213.8,21.3,82,39.4,85.8,22.1,73,55.5,312.2,26.9*65

$GLGSV,3,2,10,80,50.6,52.0,20.3,81,19.7,29.5,26.3,71,40.8,270.0,30.1,72,21.1,327.7,25.5*6E

$GLGSV,3,3,10,79,0.7,83.0,,83,19.7,143.4,*60

$GPGGA,220618.0,4532.010567,N,12241.158625,W,1,05,0.9,33.0,M,-18.0,M,,*55

$PQXFI,220618.0,4532.010567,N,12241.158625,W,33.0,11.58,8.80,0.58*7E

$GNGNS,220618.0,4532.010567,N,12241.158625,W,AA,11,0.9,33.0,-18.0,,*64

$GPVTG,83.3,T,83.3,M,0.0,N,0.0,K,A*23

$GPRMC,220618.0,A,4532.010567,N,12241.158625,W,0.0,83.3,290317,0.0,E,A*22

$GPGSA,A,2,05,07,08,13,28,,,,,,,,1.2,0.9,0.8*33

$GNGSA,A,2,05,07,08,13,28,,,,,,,,1.2,0.9,0.8*2D

$GNGSA,A,2,70,71,72,73,81,82,,,,,,,1.2,0.9,0.8*2C

$GPGSV,3,1,12,05,13.4,260.2,24.3,07,45.7,95.6,27.1,08,31.6,52.0,22.2,09,14.8,160.3,15.8*72

$GPGSV,3,2,12,13,32.3,309.4,31.8,15,2.8,322.0,15.8,17,10.5,182.8,20.2,28,68.9,244.7,36.1*43

$GPGSV,3,3,12,30,79.5,14.1,15.6,11,19.7,102.7,,20,7.7,308.0,,27,3.5,30.9,*61

$GLGSV,3,1,10,74,6.3,275.6,17.2,70,20.4,213.8,20.1,82,39.4,85.8,22.1,73,55.5,312.2,27.1*6F

$GLGSV,3,2,10,80,50.6,52.0,20.3,81,19.7,29.5,26.8,71,40.8,270.0,28.7,72,21.1,327.7,26.2*6E

$GLGSV,3,3,10,79,0.7,83.0,,83,19.7,143.4,*60

$GPGGA,220619.0,4532.010573,N,12241.158623,W,1,05,0.9,33.1,M,-18.0,M,,*56

$PQXFI,220619.0,4532.010573,N,12241.158623,W,33.1,11.91,9.65,0.58*72

$GNGNS,220619.0,4532.010573,N,12241.158623,W,AA,11,0.9,33.1,-18.0,,*67

$GPVTG,83.3,T,83.3,M,0.0,N,0.0,K,A*23

$GPRMC,220619.0,A,4532.010573,N,12241.158623,W,0.0,83.3,290317,0.0,E,A*20

$GPGSA,A,2,05,07,08,13,28,,,,,,,,1.2,0.9,0.8*33

$GNGSA,A,2,05,07,08,13,28,,,,,,,,1.2,0.9,0.8*2D

$GNGSA,A,2,70,71,72,73,81,82,,,,,,,1.2,0.9,0.8*2C

$GPGSV,3,1,12,05,13.4,260.2,22.3,07,45.7,95.6,29.3,08,31.6,52.0,22.2,09,14.8,160.3,15.8*78

$GPGSV,3,2,12,13,32.3,309.4,32.6,15,2.8,322.0,15.8,17,10.5,182.8,20.9,28,68.9,244.7,36.1*45

$GPGSV,3,3,12,30,79.5,14.1,15.6,11,19.7,102.7,,20,7.7,308.0,,27,3.5,30.9,*61

$GLGSV,3,1,10,74,6.3,275.6,17.2,70,20.4,213.8,20.6,82,39.4,85.8,22.1,73,55.5,312.2,27.7*6E

$GLGSV,3,2,10,80,50.6,52.0,19.6,81,19.7,29.5,26.3,71,40.8,270.0,29.9,72,21.1,327.7,24.9*6C

$GLGSV,3,3,10,79,0.7,83.0,,83,19.7,143.4,*60

$GPGGA,220620.0,4532.010582,N,12241.158621,W,1,05,0.9,33.1,M,-18.0,M,,*50

$PQXFI,220620.0,4532.010582,N,12241.158621,W,33.1,11.91,10.02,0.42*46

$GNGNS,220620.0,4532.010582,N,12241.158621,W,AA,11,0.9,33.1,-18.0,,*61

$GPVTG,83.3,T,83.3,M,0.0,N,0.0,K,A*23

$GPRMC,220620.0,A,4532.010582,N,12241.158621,W,0.0,83.3,290317,0.0,E,A*26

$GPGSA,A,2,05,07,08,13,28,,,,,,,,1.2,0.9,0.8*33

$GNGSA,A,2,05,07,08,13,28,,,,,,,,1.2,0.9,0.8*2D

$GNGSA,A,2,70,71,72,73,81,82,,,,,,,1.2,0.9,0.8*2C

$GPGSV,3,1,12,05,13.4,260.2,24.1,07,45.7,95.6,27.3,08,31.6,52.0,22.2,09,14.8,160.3,15.8*72

$GPGSV,3,2,12,13,32.3,309.4,32.5,15,2.8,322.0,15.8,17,10.5,182.8,20.9,28,68.9,244.7,35.8*4C

$GPGSV,3,3,12,30,79.5,14.1,14.2,11,19.7,102.7,,20,7.7,308.0,,27,3.5,30.9,*64

$GLGSV,3,1,10,74,6.3,275.6,16.2,70,20.4,213.8,21.8,82,39.4,85.8,22.1,73,55.5,312.2,27.7*60

$GLGSV,3,2,10,80,50.6,52.0,19.6,81,19.7,29.5,26.2,71,40.8,270.0,29.8,72,21.1,327.7,25.7*63

$GLGSV,3,3,10,79,0.7,83.0,,83,19.7,143.4,*60

$GPGGA,220621.0,4532.010596,N,12241.158623,W,1,06,0.9,33.1,M,-18.0,M,,*55

$PQXFI,220621.0,4532.010596,N,12241.158623,W,33.1,12.00,10.18,0.40*42

$GNGNS,220621.0,4532.010596,N,12241.158623,W,AA,12,0.9,33.1,-18.0,,*64

$GPVTG,83.3,T,83.3,M,0.0,N,0.0,K,A*23

$GPRMC,220621.0,A,4532.010596,N,12241.158623,W,0.0,83.3,290317,0.0,E,A*20

$GPGSA,A,2,05,07,08,13,28,30,,,,,,,1.2,0.9,0.8*30

$GNGSA,A,2,05,07,08,13,28,30,,,,,,,1.2,0.9,0.8*2E

$GNGSA,A,2,70,71,72,73,81,82,,,,,,,1.2,0.9,0.8*2C

$GPGSV,3,1,12,05,13.4,260.2,23.7,07,45.7,95.6,25.4,08,31.6,52.0,19.4,09,14.8,160.3,15.8*78

$GPGSV,3,2,12,13,32.3,309.4,32.6,15,2.8,322.0,15.8,17,10.5,182.8,20.2,28,68.9,244.7,36.2*4D

$GPGSV,3,3,12,30,79.5,14.1,14.2,11,19.7,102.7,,20,7.7,308.0,,27,3.5,30.9,*64

$GLGSV,3,1,10,74,6.3,275.6,16.2,70,20.4,213.8,21.6,82,39.4,85.8,22.1,73,55.5,312.2,26.4*6C

$GLGSV,3,2,10,80,50.6,52.0,20.3,81,19.7,29.5,26.5,71,40.8,270.0,29.6,72,21.1,327.7,25.8*6A

$GLGSV,3,3,10,79,0.7,83.0,,83,19.7,143.4,*60

$GPGGA,220622.0,4532.010603,N,12241.158624,W,1,06,0.9,33.1,M,-18.0,M,,*5E

$PQXFI,220622.0,4532.010603,N,12241.158624,W,33.1,12.09,10.17,0.42*4D

$GNGNS,220622.0,4532.010603,N,12241.158624,W,AA,12,0.9,33.1,-18.0,,*6F

$GPVTG,83.3,T,83.3,M,0.0,N,0.0,K,A*23

$GPRMC,220622.0,A,4532.010603,N,12241.158624,W,0.0,83.3,290317,0.0,E,A*2B

$GPGSA,A,2,05,07,08,13,28,30,,,,,,,1.2,0.9,0.8*30

$GNGSA,A,2,05,07,08,13,28,30,,,,,,,1.2,0.9,0.8*2E

$GNGSA,A,2,70,71,72,73,81,82,,,,,,,1.2,0.9,0.8*2C

$GPGSV,3,1,12,05,13.4,260.2,23.6,07,45.7,95.6,25.9,08,31.6,52.0,19.4,09,14.8,160.3,15.8*74

$GPGSV,3,2,12,13,32.3,309.4,32.5,15,2.8,322.0,15.8,17,10.5,182.8,20.2,28,68.9,244.7,35.5*4A

$GPGSV,3,3,12,30,79.5,14.1,14.2,11,19.7,102.7,,20,7.7,308.0,,27,3.5,30.9,*64

$GLGSV,3,1,10,74,6.3,275.6,20.5,70,20.4,213.8,21.2,82,39.4,85.8,22.1,73,55.5,312.2,26.0*6E

$GLGSV,3,2,10,80,50.6,52.0,20.6,81,19.7,29.5,26.1,71,40.8,270.0,30.0,72,21.1,327.7,25.4*69

$GLGSV,3,3,10,79,0.7,83.0,,83,19.7,143.4,*60

$GPGGA,220623.0,4532.010616,N,12241.158624,W,1,06,0.9,33.2,M,-18.0,M,,*58

$PQXFI,220623.0,4532.010616,N,12241.158624,W,33.2,12.12,10.17,0.42*41

$GNGNS,220623.0,4532.010616,N,12241.158624,W,AA,11,0.9,33.2,-18.0,,*6A

$GPVTG,83.3,T,83.3,M,0.0,N,0.0,K,A*23

$GPRMC,220623.0,A,4532.010616,N,12241.158624,W,0.0,83.3,290317,0.0,E,A*2E

$GPGSA,A,2,05,07,08,13,28,30,,,,,,,1.2,0.9,0.8*30

$GNGSA,A,2,05,07,08,13,28,30,,,,,,,1.2,0.9,0.8*2E

$GNGSA,A,2,70,71,72,73,81,,,,,,,,1.2,0.9,0.8*26

$GPGSV,3,1,12,05,13.4,260.2,22.6,07,45.7,95.6,26.4,08,31.6,52.0,19.4,09,14.8,160.3,15.8*7B

$GPGSV,3,2,12,13,32.3,309.4,32.2,15,2.8,322.0,15.8,17,10.5,182.8,20.7,28,68.9,244.7,35.5*48

$GPGSV,3,3,12,30,79.5,14.1,14.2,11,19.7,102.7,,20,7.7,308.0,,27,3.5,30.9,*64

$GLGSV,3,1,10,74,6.3,275.6,20.5,70,20.4,213.8,21.2,82,40.1,84.4,22.1,73,55.5,312.2,25.0*6B

$GLGSV,3,2,10,80,50.6,52.0,22.0,81,19.7,29.5,26.8,71,40.8,270.0,28.9,72,21.1,327.7,26.8*6B

$GLGSV,3,3,10,79,0.7,83.0,,83,19.7,143.4,*60

$GPGGA,220624.0,4532.010623,N,12241.158625,W,1,06,0.9,33.2,M,-18.0,M,,*58

$PQXFI,220624.0,4532.010623,N,12241.158625,W,33.2,12.64,11.03,0.49*4F

$GNGNS,220624.0,4532.010623,N,12241.158625,W,AA,11,0.9,33.2,-18.0,,*6A

$GPVTG,83.3,T,83.3,M,0.0,N,0.0,K,A*23

$GPRMC,220624.0,A,4532.010623,N,12241.158625,W,0.0,83.3,290317,0.0,E,A*2E

$GPGSA,A,2,05,07,08,13,28,30,,,,,,,1.2,0.9,0.8*30

$GNGSA,A,2,05,07,08,13,28,30,,,,,,,1.2,0.9,0.8*2E

$GNGSA,A,2,70,71,72,73,81,,,,,,,,1.2,0.9,0.8*26

$GPGSV,3,1,12,05,13.4,260.2,23.4,07,45.7,95.6,26.6,08,31.6,52.0,19.4,09,14.8,160.3,15.8*7A

$GPGSV,3,2,12,13,32.3,309.4,32.4,15,2.8,322.0,16.8,17,10.5,182.8,20.7,28,68.9,244.7,35.1*49

$GPGSV,3,3,12,30,79.5,14.1,14.2,11,19.7,102.7,,20,7.7,308.0,,27,3.5,30.9,*64

$GLGSV,3,1,10,74,6.3,275.6,18.6,70,20.4,213.8,20.2,82,40.1,84.4,22.1,73,55.5,312.2,25.2*60

$GLGSV,3,2,10,80,50.6,52.0,21.6,81,19.7,29.5,25.9,71,40.8,270.0,28.6,72,21.1,327.7,25.7*6F

$GLGSV,3,3,10,79,0.7,83.0,,83,19.7,143.4,*60

$GPGGA,220625.0,4532.010632,N,12241.158625,W,1,06,0.9,33.2,M,-18.0,M,,*59

$PQXFI,220625.0,4532.010632,N,12241.158625,W,33.2,12.80,11.41,0.48*43

$GNGNS,220625.0,4532.010632,N,12241.158625,W,AA,11,0.9,33.2,-18.0,,*6B

$GPVTG,83.3,T,83.3,M,0.0,N,0.0,K,A*23

$GPRMC,220625.0,A,4532.010632,N,12241.158625,W,0.0,83.3,290317,0.0,E,A*2F

$GPGSA,A,2,05,07,08,13,28,30,,,,,,,1.2,0.9,0.8*30

$GNGSA,A,2,05,07,08,13,28,30,,,,,,,1.2,0.9,0.8*2E

$GNGSA,A,2,70,71,72,73,81,,,,,,,,1.2,0.9,0.8*26

$GPGSV,3,1,12,05,13.4,260.2,24.9,07,45.7,95.6,26.7,08,31.6,52.0,19.4,09,14.8,160.3,15.8*71

$GPGSV,3,2,12,13,32.3,309.4,32.0,15,2.8,322.0,16.8,17,10.5,182.8,19.8,28,68.9,244.7,35.3*4A

$GPGSV,3,3,12,30,79.5,14.1,17.2,11,19.7,102.7,,20,7.7,308.0,,27,3.5,30.9,*67

$GLGSV,3,1,10,74,6.3,275.6,18.6,70,20.4,213.8,20.2,82,40.1,84.4,22.1,73,55.5,312.2,23.1*65

$GLGSV,3,2,10,80,50.6,52.0,22.4,81,19.7,29.5,25.7,71,40.8,270.0,27.9,72,21.1,327.7,25.8*6F

$GLGSV,3,3,10,79,0.7,83.0,,83,19.7,143.4,*60

$GPGGA,220626.0,4532.010641,N,12241.158623,W,1,06,0.9,33.3,M,-18.0,M,,*59

$PQXFI,220626.0,4532.010641,N,12241.158623,W,33.3,12.97,11.65,0.49*42

$GNGNS,220626.0,4532.010641,N,12241.158623,W,AA,11,0.9,33.3,-18.0,,*6B

$GPVTG,83.3,T,83.3,M,0.0,N,0.0,K,A*23

$GPRMC,220626.0,A,4532.010641,N,12241.158623,W,0.0,83.3,290317,0.0,E,A*2E

$GPGSA,A,2,05,07,08,13,28,30,,,,,,,1.2,0.9,0.8*30

$GNGSA,A,2,05,07,08,13,28,30,,,,,,,1.2,0.9,0.8*2E

$GNGSA,A,2,70,71,72,73,81,,,,,,,,1.2,0.9,0.8*26

$GPGSV,3,1,12,05,13.4,260.2,23.3,07,45.7,95.6,27.4,08,31.6,52.0,19.4,09,14.8,160.3,15.8*7E

$GPGSV,3,2,12,13,32.3,309.4,32.8,15,2.8,322.0,16.8,17,10.5,182.8,19.8,28,68.9,244.7,34.9*49

$GPGSV,3,3,12,30,79.5,14.1,24.0,11,19.7,102.7,,20,7.7,308.0,,27,3.5,30.9,*65

$GLGSV,3,1,10,74,6.3,275.6,19.2,70,20.4,213.8,20.5,82,40.1,84.4,22.1,73,55.5,312.2,24.1*60

$GLGSV,3,2,10,80,50.6,52.0,23.1,81,19.7,29.5,25.7,71,40.8,270.0,28.1,72,21.1,327.7,26.8*6F

$GLGSV,3,3,10,79,0.7,83.0,,83,19.7,143.4,*60

$GPGGA,220627.0,4532.010653,N,12241.158620,W,1,06,0.9,33.3,M,-18.0,M,,*58

$PQXFI,220627.0,4532.010653,N,12241.158620,W,33.3,13.10,12.04,0.48*48

$GNGNS,220627.0,4532.010653,N,12241.158620,W,AA,11,0.9,33.3,-18.0,,*6A

$GPVTG,83.3,T,83.3,M,0.0,N,0.0,K,A*23

$GPRMC,220627.0,A,4532.010653,N,12241.158620,W,0.0,83.3,290317,0.0,E,A*2F

$GPGSA,A,2,05,07,08,13,28,30,,,,,,,1.2,0.9,0.8*30

$GNGSA,A,2,05,07,08,13,28,30,,,,,,,1.2,0.9,0.8*2E

$GNGSA,A,2,70,71,72,73,81,,,,,,,,1.2,0.9,0.8*26

$GPGSV,3,1,11,05,13.4,260.2,23.6,07,45.7,95.6,25.2,08,31.6,52.0,19.4,13,32.3,309.4,32.8*77

$GPGSV,3,2,11,15,2.8,322.0,18.6,17,10.5,182.8,21.1,28,68.9,244.7,34.9,30,79.5,14.1,23.7*75

$GPGSV,3,3,11,11,19.7,102.7,,20,7.7,308.0,,27,3.5,30.9,*72

$GLGSV,3,1,10,74,6.3,275.6,19.2,70,20.4,213.8,21.2,82,40.1,84.4,22.1,73,55.5,312.2,25.8*6E

$GLGSV,3,2,10,80,50.6,52.0,22.1,81,19.7,29.5,24.6,71,40.8,270.0,29.1,72,21.1,327.7,26.8*6F

$GLGSV,3,3,10,79,0.7,83.0,,83,19.7,143.4,*60

$GPGGA,220628.0,4532.010652,N,12241.158617,W,1,06,0.9,33.3,M,-18.0,M,,*52

$PQXFI,220628.0,4532.010652,N,12241.158617,W,33.3,13.23,12.22,0.47*49

$GNGNS,220628.0,4532.010652,N,12241.158617,W,AA,11,0.9,33.3,-18.0,,*60

$GPVTG,83.3,T,83.3,M,0.0,N,0.0,K,A*23

$GPRMC,220628.0,A,4532.010652,N,12241.158617,W,0.0,83.3,290317,0.0,E,A*25

$GPGSA,A,2,05,07,08,13,28,30,,,,,,,1.2,0.9,0.8*30

$GNGSA,A,2,05,07,08,13,28,30,,,,,,,1.2,0.9,0.8*2E

$GNGSA,A,2,70,71,72,73,81,,,,,,,,1.2,0.9,0.8*26

$GPGSV,3,1,12,05,13.4,260.2,23.5,07,45.7,95.6,24.0,08,31.6,52.0,19.4,13,32.3,309.4,32.5*79

$GPGSV,3,2,12,15,2.8,322.0,18.6,17,10.5,182.8,21.1,28,68.9,244.7,34.9,30,79.5,14.1,22.4*74

$GPGSV,3,3,12,09,14.8,160.3,,11,19.7,102.7,,20,7.7,308.0,,27,3.5,30.9,*41

$GLGSV,3,1,10,74,6.3,275.6,19.2,70,20.4,213.8,22.0,82,40.1,84.4,22.1,73,55.5,312.2,25.3*64

$GLGSV,3,2,10,80,50.6,52.0,22.1,81,19.7,29.5,25.8,71,40.8,270.0,28.5,72,21.1,327.7,26.5*68

$GLGSV,3,3,10,79,0.7,83.0,,83,19.7,143.4,*60

$GPGGA,220629.0,4532.010670,N,12241.158619,W,1,05,1.0,33.4,M,-18.0,M,,*51

$PQXFI,220629.0,4532.010670,N,12241.158619,W,33.4,13.63,12.88,0.41*43

$GNGNS,220629.0,4532.010670,N,12241.158619,W,AA,10,1.0,33.4,-18.0,,*61

$GPVTG,83.3,T,83.3,M,0.0,N,0.0,K,A*23

$GPRMC,220629.0,A,4532.010670,N,12241.158619,W,0.0,83.3,290317,0.0,E,A*2A

$GPGSA,A,2,05,07,13,28,30,,,,,,,,1.3,1.0,0.8*31

$GNGSA,A,2,05,07,13,28,30,,,,,,,,1.3,1.0,0.8*2F

$GNGSA,A,2,70,71,72,73,81,,,,,,,,1.3,1.0,0.8*2F

$GPGSV,3,1,12,05,13.4,260.2,24.0,07,45.7,95.6,22.0,08,31.6,52.0,19.4,13,32.3,309.4,32.2*7A

$GPGSV,3,2,12,15,2.8,322.0,18.6,17,10.5,182.8,20.5,28,68.9,244.7,35.0,30,79.5,14.1,21.7*79

$GPGSV,3,3,12,09,14.8,160.3,,11,19.7,102.7,,20,7.7,308.0,,27,3.5,30.9,*41

$GLGSV,3,1,10,74,6.3,275.6,17.9,70,20.4,213.8,20.9,82,40.1,84.4,22.1,73,55.5,312.2,24.4*6C

$GLGSV,3,2,10,80,50.6,52.0,20.5,81,19.7,29.5,25.1,71,40.8,270.0,28.5,72,21.1,327.7,27.7*64

$GLGSV,3,3,10,79,0.7,83.0,,83,19.7,143.4,*60

$GPGGA,220630.0,4532.010684,N,12241.158622,W,1,05,1.0,33.4,M,-18.0,M,,*5A

$PQXFI,220630.0,4532.010684,N,12241.158622,W,33.4,14.14,13.40,0.49*42

$GNGNS,220630.0,4532.010684,N,12241.158622,W,AA,10,1.0,33.4,-18.0,,*6A

$GPVTG,83.3,T,83.3,M,0.0,N,0.0,K,A*23

$GPRMC,220630.0,A,4532.010684,N,12241.158622,W,0.0,83.3,290317,0.0,E,A*21

$GPGSA,A,2,05,07,13,28,30,,,,,,,,1.3,1.0,0.8*31

$GNGSA,A,2,05,07,13,28,30,,,,,,,,1.3,1.0,0.8*2F

$GNGSA,A,2,70,71,72,73,81,,,,,,,,1.3,1.0,0.8*2F

$GPGSV,3,1,12,05,13.4,260.2,23.9,07,45.7,95.6,25.5,08,31.6,52.0,19.4,13,32.3,309.4,32.2*76

$GPGSV,3,2,12,15,2.8,322.0,18.6,17,10.5,182.8,20.5,28,68.9,244.7,35.5,30,79.5,14.1,21.2*79

$GPGSV,3,3,12,09,14.8,160.3,,11,19.7,102.7,,20,7.7,308.0,,27,3.5,30.9,*41

$GLGSV,3,1,10,74,6.3,275.6,17.9,70,20.4,213.8,20.1,82,40.1,84.4,22.1,73,55.5,312.2,24.1*61

$GLGSV,3,2,10,80,50.6,52.0,20.5,81,19.7,29.5,24.6,71,40.8,270.0,28.3,72,21.1,327.7,27.3*60

$GLGSV,3,3,10,79,0.7,83.0,,83,19.7,143.4,*60

$GPGGA,220631.0,4532.010697,N,12241.158624,W,1,05,1.0,33.5,M,-18.0,M,,*5E

$PQXFI,220631.0,4532.010697,N,12241.158624,W,33.5,14.59,14.04,0.60*43

$GNGNS,220631.0,4532.010697,N,12241.158624,W,AA,10,1.0,33.5,-18.0,,*6E

$GPVTG,83.3,T,83.3,M,0.0,N,0.0,K,A*23

$GPRMC,220631.0,A,4532.010697,N,12241.158624,W,0.0,83.3,290317,0.0,E,A*24

$GPGSA,A,2,05,07,13,28,30,,,,,,,,1.3,1.0,0.8*31

$GNGSA,A,2,05,07,13,28,30,,,,,,,,1.3,1.0,0.8*2F

$GNGSA,A,2,70,71,72,73,81,,,,,,,,1.3,1.0,0.8*2F

$GPGSV,3,1,12,05,13.4,260.2,24.8,07,45.7,95.6,24.1,08,31.6,52.0,19.4,13,32.3,309.4,32.0*77

$GPGSV,3,2,12,15,2.8,322.0,18.6,17,10.5,182.8,20.0,28,68.9,244.7,35.0,30,79.5,14.1,23.1*78

$GPGSV,3,3,12,09,14.8,160.3,,11,19.7,102.7,,20,7.7,308.0,,27,3.5,30.9,*41

$GLGSV,3,1,10,74,6.3,275.6,17.9,70,20.4,213.8,22.1,82,40.1,84.4,22.1,73,55.5,312.2,23.3*66

$GLGSV,3,2,10,80,50.6,52.0,20.6,81,19.7,29.5,23.2,71,40.8,270.0,28.6,72,21.1,327.7,28.3*6A

$GLGSV,3,3,10,79,0.7,83.0,,83,19.7,143.4,*60

$GPGGA,220632.0,4532.010716,N,12241.158622,W,1,05,1.0,33.6,M,-18.0,M,,*50

$PQXFI,220632.0,4532.010716,N,12241.158622,W,33.6,14.62,14.20,0.49*48

$GNGNS,220632.0,4532.010716,N,12241.158622,W,AA,10,1.0,33.6,-18.0,,*60

$GPVTG,83.3,T,83.3,M,0.0,N,0.0,K,A*23

$GPRMC,220632.0,A,4532.010716,N,12241.158622,W,0.0,83.3,290317,0.0,E,A*29

$GPGSA,A,2,05,07,13,28,30,,,,,,,,1.3,1.0,0.8*31

$GNGSA,A,2,05,07,13,28,30,,,,,,,,1.3,1.0,0.8*2F

$GNGSA,A,2,70,71,72,73,81,,,,,,,,1.3,1.0,0.8*2F

$GPGSV,3,1,12,05,13.4,260.2,24.8,07,45.7,95.6,23.4,08,31.6,52.0,19.4,13,32.3,309.4,32.5*70

$GPGSV,3,2,12,15,2.8,322.0,18.6,17,10.5,182.8,20.0,28,68.9,244.7,34.9,30,79.5,14.1,22.6*76

$GPGSV,3,3,12,09,14.8,160.3,,11,19.7,102.7,,20,7.7,308.0,,27,3.5,30.9,*41

$GLGSV,3,1,10,74,6.3,275.6,17.9,70,20.4,213.8,20.5,82,40.1,84.4,22.1,73,55.5,312.2,22.1*63

$GLGSV,3,2,10,80,50.6,52.0,20.6,81,19.7,29.5,21.3,71,40.8,270.0,27.9,72,21.1,327.7,28.2*68

$GLGSV,3,3,10,79,0.7,83.0,,83,19.7,143.4,*60

$GPGGA,220633.0,4532.010732,N,12241.158623,W,1,05,1.0,33.6,M,-18.0,M,,*56

$PQXFI,220633.0,4532.010732,N,12241.158623,W,33.6,14.73,14.12,0.47*41

$GNGNS,220633.0,4532.010732,N,12241.158623,W,AA,10,1.0,33.6,-18.0,,*66

$GPVTG,83.3,T,83.3,M,0.0,N,0.0,K,A*23

$GPRMC,220633.0,A,4532.010732,N,12241.158623,W,0.0,83.3,290317,0.0,E,A*2F

$GPGSA,A,2,05,07,13,28,30,,,,,,,,1.3,1.0,0.8*31

$GNGSA,A,2,05,07,13,28,30,,,,,,,,1.3,1.0,0.8*2F

$GNGSA,A,2,70,71,72,73,81,,,,,,,,1.3,1.0,0.8*2F

$GPGSV,3,1,12,05,13.4,260.2,25.0,07,45.7,95.6,24.6,08,31.6,52.0,19.4,13,32.3,309.4,32.4*7D

$GPGSV,3,2,12,15,2.8,322.0,18.6,17,10.5,182.8,19.6,28,68.9,244.7,34.9,30,79.5,14.1,23.7*7A

$GPGSV,3,3,12,09,14.8,160.3,,11,19.7,102.7,,20,7.7,308.0,,27,3.5,30.9,*41

$GLGSV,3,1,10,74,6.3,275.6,17.9,70,20.4,213.8,22.1,82,40.1,84.4,22.1,73,55.5,312.2,21.6*61

$GLGSV,3,2,10,80,50.6,52.0,19.3,81,19.7,29.5,21.3,71,40.8,270.0,28.5,72,21.1,327.7,28.1*67

$GLGSV,3,3,10,79,0.7,83.0,,83,19.7,143.4,*60

$GPGGA,220634.0,4532.010750,N,12241.158621,W,1,05,1.0,33.7,M,-18.0,M,,*56

$PQXFI,220634.0,4532.010750,N,12241.158621,W,33.7,14.78,14.12,0.60*4F

$GNGNS,220634.0,4532.010750,N,12241.158621,W,AA,10,1.0,33.7,-18.0,,*66

$GPVTG,83.3,T,83.3,M,0.0,N,0.0,K,A*23

$GPRMC,220634.0,A,4532.010750,N,12241.158621,W,0.0,83.3,290317,0.0,E,A*2E

$GPGSA,A,2,05,07,13,28,30,,,,,,,,1.3,1.0,0.8*31

$GNGSA,A,2,05,07,13,28,30,,,,,,,,1.3,1.0,0.8*2F

$GNGSA,A,2,70,71,72,73,81,,,,,,,,1.3,1.0,0.8*2F

$GPGSV,3,1,12,05,13.4,260.2,25.7,07,45.7,95.6,25.2,08,31.6,52.0,19.4,13,32.3,309.4,33.2*78

$GPGSV,3,2,12,15,2.8,322.0,21.8,17,10.5,182.8,19.6,28,68.9,244.7,34.4,30,79.5,14.1,21.0*76

$GPGSV,3,3,12,09,14.8,160.3,,11,19.7,102.7,,20,7.7,308.0,,27,3.5,30.9,*41

$GLGSV,3,1,10,74,6.3,275.6,17.9,70,20.4,213.8,20.6,82,40.1,84.4,22.1,73,55.5,312.2,22.2*63

$GLGSV,3,2,10,80,50.6,52.0,19.3,81,19.7,29.5,21.5,71,40.8,270.0,28.3,72,21.1,327.7,28.9*6F

$GLGSV,3,3,10,79,0.7,83.0,,83,19.7,143.4,*60

$GPGGA,220635.0,4532.010770,N,12241.158622,W,1,05,1.0,33.7,M,-18.0,M,,*56

$PQXFI,220635.0,4532.010770,N,12241.158622,W,33.7,15.15,14.69,0.48*43

$GNGNS,220635.0,4532.010770,N,12241.158622,W,AA,10,1.0,33.7,-18.0,,*66

$GPVTG,83.3,T,83.3,M,0.0,N,0.0,K,A*23

$GPRMC,220635.0,A,4532.010770,N,12241.158622,W,0.0,83.3,290317,0.0,E,A*2E

$GPGSA,A,2,05,07,13,28,30,,,,,,,,1.3,1.0,0.8*31

$GNGSA,A,2,05,07,13,28,30,,,,,,,,1.3,1.0,0.8*2F

$GNGSA,A,2,70,71,72,73,81,,,,,,,,1.3,1.0,0.8*2F

$GPGSV,3,1,12,05,13.4,260.2,25.7,07,45.7,95.6,26.4,08,31.6,52.0,19.4,13,32.3,309.4,33.2*7D

$GPGSV,3,2,12,15,2.8,322.0,22.2,17,10.5,182.8,19.6,28,68.9,244.7,35.0,30,79.5,14.1,23.0*78

$GPGSV,3,3,12,09,14.8,160.3,,11,19.7,102.7,,20,7.7,308.0,,27,3.5,30.9,*41

$GLGSV,3,1,10,74,6.3,275.6,17.9,70,20.4,213.8,21.0,82,40.1,84.4,22.1,73,55.5,312.2,22.7*61

$GLGSV,3,2,10,80,50.6,52.0,21.3,81,19.7,29.5,20.4,71,40.8,270.0,27.2,72,21.1,327.7,28.3*60

$GLGSV,3,3,10,79,0.7,83.0,,83,19.7,143.4,*60

$GPGGA,220636.0,4532.010779,N,12241.158622,W,1,05,1.0,33.7,M,-18.0,M,,*5C

$PQXFI,220636.0,4532.010779,N,12241.158622,W,33.7,15.02,14.38,0.48*4B

$GNGNS,220636.0,4532.010779,N,12241.158622,W,AA,10,1.0,33.7,-18.0,,*6C

$GPVTG,83.3,T,83.3,M,0.0,N,0.0,K,A*23

$GPRMC,220636.0,A,4532.010779,N,12241.158622,W,0.0,83.3,290317,0.0,E,A*24

$GPGSA,A,2,05,07,13,28,30,,,,,,,,1.3,1.0,0.8*31

$GNGSA,A,2,05,07,13,28,30,,,,,,,,1.3,1.0,0.8*2F

$GNGSA,A,2,70,71,72,73,81,,,,,,,,1.3,1.0,0.8*2F

$GPGSV,3,1,12,05,13.4,260.2,24.2,07,45.7,95.6,24.7,08,31.6,52.0,19.4,13,32.3,309.4,32.8*73

$GPGSV,3,2,12,15,2.8,322.0,22.2,17,10.5,182.8,19.0,28,68.9,244.7,34.8,30,79.5,14.1,21.9*7C

$GPGSV,3,3,12,09,14.8,160.3,,11,19.7,102.7,,20,7.7,308.0,,27,3.5,30.9,*41

$GLGSV,3,1,10,74,6.3,275.6,17.9,70,20.4,213.8,21.0,82,40.1,84.4,22.1,73,55.5,312.2,20.1*65

$GLGSV,3,2,10,80,50.6,52.0,21.7,81,19.7,29.5,19.3,71,40.8,270.0,26.7,72,21.1,327.7,28.4*6A

$GLGSV,3,3,10,79,0.7,83.0,,83,19.7,143.4,*60

$GPGGA,220637.0,4532.010794,N,12241.158621,W,1,05,1.0,33.8,M,-18.0,M,,*52

$PQXFI,220637.0,4532.010794,N,12241.158621,W,33.8,15.44,14.93,0.54*4B

$GNGNS,220637.0,4532.010794,N,12241.158621,W,AA,10,1.0,33.8,-18.0,,*62

$GPVTG,83.3,T,83.3,M,0.0,N,0.0,K,A*23

$GPRMC,220637.0,A,4532.010794,N,12241.158621,W,0.0,83.3,290317,0.0,E,A*25

$GPGSA,A,2,05,07,13,28,30,,,,,,,,1.3,1.0,0.8*31

$GNGSA,A,2,05,07,13,28,30,,,,,,,,1.3,1.0,0.8*2F

$GNGSA,A,2,70,71,72,73,81,,,,,,,,1.3,1.0,0.8*2F

$GPGSV,3,1,12,05,13.4,260.2,22.4,07,45.7,95.6,20.3,08,31.6,52.0,19.4,13,32.3,309.4,32.8*73

$GPGSV,3,2,12,15,2.8,322.0,22.2,17,10.5,182.8,19.0,28,68.9,244.7,35.4,30,79.5,14.1,24.1*7C

$GPGSV,3,3,12,09,14.8,160.3,,11,19.7,102.7,,20,7.7,308.0,,27,3.5,30.9,*41

$GLGSV,3,1,10,74,6.3,275.6,17.9,70,20.4,213.8,18.6,82,40.1,84.4,22.1,73,55.5,312.2,20.1*69

$GLGSV,3,2,10,80,50.6,52.0,21.2,81,19.7,29.5,21.1,71,40.8,270.0,27.0,72,21.1,327.7,28.5*61

$GLGSV,3,3,10,79,0.7,83.0,,83,19.7,143.4,*60

$GPGGA,220638.0,4532.010797,N,12241.158622,W,1,05,1.0,33.8,M,-18.0,M,,*5D

$PQXFI,220638.0,4532.010797,N,12241.158622,W,33.8,15.14,14.18,0.56*40

$GNGNS,220638.0,4532.010797,N,12241.158622,W,AA,10,1.0,33.8,-18.0,,*6D

$GPVTG,83.3,T,83.3,M,0.0,N,0.0,K,A*23

$GPRMC,220638.0,A,4532.010797,N,12241.158622,W,0.0,83.3,290317,0.0,E,A*2A

$GPGSA,A,2,05,07,13,28,30,,,,,,,,1.3,1.0,0.8*31

$GNGSA,A,2,05,07,13,28,30,,,,,,,,1.3,1.0,0.8*2F

$GNGSA,A,2,70,71,72,73,81,,,,,,,,1.3,1.0,0.8*2F

$GPGSV,3,1,12,05,13.4,260.2,24.3,07,45.7,95.6,20.3,08,31.6,52.0,19.3,13,32.3,309.4,32.4*79

$GPGSV,3,2,12,15,2.8,322.0,21.2,17,10.5,182.8,20.2,28,68.9,244.7,35.5,30,79.5,14.1,22.8*79

$GPGSV,3,3,12,09,14.8,160.3,,11,19.7,102.7,,20,7.7,308.0,,27,3.5,30.9,*41

$GLGSV,3,1,10,74,6.3,275.6,17.9,70,20.4,213.8,18.6,82,40.1,84.4,22.1,73,55.5,312.2,20.1*69

$GLGSV,3,2,10,80,50.6,52.0,21.0,81,19.7,29.5,21.1,71,40.8,270.0,27.0,72,21.1,327.7,28.5*63

$GLGSV,3,3,10,79,0.7,83.0,,83,19.7,143.4,*60

$GPGGA,220639.0,4532.010804,N,12241.158622,W,1,06,0.9,33.8,M,-18.0,M,,*52

$PQXFI,220639.0,4532.010804,N,12241.158622,W,33.8,15.35,13.55,0.98*4B

$GNGNS,220639.0,4532.010804,N,12241.158622,W,AA,11,0.9,33.8,-18.0,,*60

$GPVTG,83.3,T,83.3,M,0.0,N,0.0,K,A*23

$GPRMC,220639.0,A,4532.010804,N,12241.158622,W,0.0,83.3,290317,0.0,E,A*2E

$GPGSA,A,2,05,07,08,13,28,30,,,,,,,1.2,0.9,0.8*30

$GNGSA,A,2,05,07,08,13,28,30,,,,,,,1.2,0.9,0.8*2E

$GNGSA,A,2,70,71,72,73,81,,,,,,,,1.2,0.9,0.8*26

$GPGSV,3,1,12,05,13.4,260.2,22.8,07,45.7,95.6,20.3,08,31.6,52.0,19.3,13,32.3,309.4,32.8*78

$GPGSV,3,2,12,15,2.8,322.0,22.5,17,10.5,182.8,20.2,28,68.9,244.7,35.1,30,79.5,14.1,23.6*76

$GPGSV,3,3,12,09,14.8,160.3,,11,19.7,102.7,,20,7.7,308.0,,27,3.5,30.9,*41

$GLGSV,3,1,10,74,6.3,275.6,17.9,70,20.4,213.8,20.2,82,40.1,84.4,22.1,73,55.5,312.2,20.1*66

$GLGSV,3,2,10,80,50.6,52.0,21.0,81,19.7,29.5,19.1,71,40.8,270.0,26.3,72,21.1,327.7,28.5*6A

$GLGSV,3,3,10,79,0.7,83.0,,83,19.7,143.4,*60

$GPGGA,220640.0,4532.010811,N,12241.158621,W,1,06,0.9,33.8,M,-18.0,M,,*5B

$PQXFI,220640.0,4532.010811,N,12241.158621,W,33.8,15.23,13.26,0.50*45

$GNGNS,220640.0,4532.010811,N,12241.158621,W,AA,11,0.9,33.8,-18.0,,*69

$GPVTG,83.3,T,83.3,M,0.0,N,0.0,K,A*23

$GPRMC,220640.0,A,4532.010811,N,12241.158621,W,0.0,83.3,290317,0.0,E,A*27

$GPGSA,A,2,05,07,08,13,28,30,,,,,,,1.2,0.9,0.8*30

$GNGSA,A,2,05,07,08,13,28,30,,,,,,,1.2,0.9,0.8*2E

$GNGSA,A,2,70,71,72,73,81,,,,,,,,1.2,0.9,0.8*26

$GPGSV,3,1,12,05,13.4,260.2,21.4,07,45.7,95.6,20.3,08,31.6,52.0,19.3,13,32.3,309.4,32.5*7A

$GPGSV,3,2,12,15,2.8,322.0,22.5,17,10.5,182.8,20.0,28,68.9,244.7,35.2,30,79.5,14.1,20.9*7B

$GPGSV,3,3,12,09,14.8,160.3,,11,19.7,102.7,,20,7.7,308.0,,27,3.5,30.9,*41

$GLGSV,3,1,10,74,6.3,275.6,17.9,70,20.4,213.8,20.7,73,55.5,312.2,20.1,80,50.6,52.0,20.1*6A

$GLGSV,3,2,10,81,19.7,29.5,20.6,71,40.8,270.0,26.7,72,21.1,327.7,28.7,,40.1,84.4,*7D

$GLGSV,3,3,10,79,0.7,83.0,,83,19.7,143.4,*60

$GPGGA,220641.0,4532.010811,N,12241.158622,W,1,06,0.9,33.8,M,-18.0,M,,*59

$PQXFI,220641.0,4532.010811,N,12241.158622,W,33.8,15.36,12.85,0.42*48

$GNGNS,220641.0,4532.010811,N,12241.158622,W,AA,11,0.9,33.8,-18.0,,*6B

$GPVTG,83.3,T,83.3,M,0.0,N,0.0,K,A*23

$GPRMC,220641.0,A,4532.010811,N,12241.158622,W,0.0,83.3,290317,0.0,E,A*25

$GPGSA,A,2,05,07,08,13,28,30,,,,,,,1.2,0.9,0.8*30

$GNGSA,A,2,05,07,08,13,28,30,,,,,,,1.2,0.9,0.8*2E

$GNGSA,A,2,70,71,72,73,81,,,,,,,,1.2,0.9,0.8*26

$GPGSV,3,1,12,05,13.4,260.2,20.8,07,45.7,95.6,17.4,08,31.6,52.0,19.3,13,32.3,309.4,33.1*71

$GPGSV,3,2,12,15,2.8,322.0,22.2,17,10.5,182.8,20.0,28,68.9,244.7,35.3,30,79.5,14.1,20.9*7D

$GPGSV,3,3,12,09,14.8,160.3,,11,19.7,102.7,,20,7.7,308.0,,27,3.5,30.9,*41

$GLGSV,3,1,10,74,6.3,275.6,13.1,70,20.4,213.8,20.7,73,55.5,312.2,20.1,80,50.6,52.0,20.1*66

$GLGSV,3,2,10,81,19.7,29.5,20.5,71,40.8,270.0,23.9,72,21.1,327.7,28.1,82,40.1,84.4,*79

$GLGSV,3,3,10,79,0.7,83.0,,83,19.7,143.4,*60

$GPGGA,220642.0,4532.010812,N,12241.158623,W,1,06,0.9,33.8,M,-18.0,M,,*58

$PQXFI,220642.0,4532.010812,N,12241.158623,W,33.8,15.19,12.40,0.50*4E

$GNGNS,220642.0,4532.010812,N,12241.158623,W,AA,11,0.9,33.8,-18.0,,*6A

$GPVTG,83.3,T,83.3,M,0.0,N,0.0,K,A*23

$GPRMC,220642.0,A,4532.010812,N,12241.158623,W,0.0,83.3,290317,0.0,E,A*24

$GPGSA,A,2,05,07,08,13,28,30,,,,,,,1.2,0.9,0.8*30

$GNGSA,A,2,05,07,08,13,28,30,,,,,,,1.2,0.9,0.8*2E

$GNGSA,A,2,70,71,72,73,81,,,,,,,,1.2,0.9,0.8*26

$GPGSV,3,1,12,05,13.4,260.2,23.1,07,45.7,95.6,17.4,08,31.6,52.0,19.3,13,32.3,309.4,32.5*7E

$GPGSV,3,2,12,15,2.8,322.0,23.9,17,10.5,182.8,19.8,28,68.9,244.7,35.2,30,79.5,14.1,20.1*7C

$GPGSV,3,3,12,09,14.8,160.3,,11,19.7,102.7,,20,7.7,308.0,,27,3.5,30.9,*41

$GLGSV,3,1,10,74,6.3,275.6,13.1,70,20.4,213.8,19.3,73,55.5,312.2,20.1,80,50.6,52.0,19.1*62

$GLGSV,3,2,10,81,19.7,29.5,22.2,71,40.8,270.0,24.4,72,21.1,327.7,28.0,82,40.1,84.4,*77

$GLGSV,3,3,10,79,0.7,83.0,,83,19.7,143.4,*60

$GPGGA,220643.0,4532.010818,N,12241.158624,W,1,06,0.9,33.8,M,-18.0,M,,*54

$PQXFI,220643.0,4532.010818,N,12241.158624,W,33.8,15.94,12.56,0.58*48

$GNGNS,220643.0,4532.010818,N,12241.158624,W,AA,11,0.9,33.8,-18.0,,*66

$GPVTG,83.3,T,83.3,M,0.0,N,0.0,K,A*23

$GPRMC,220643.0,A,4532.010818,N,12241.158624,W,0.0,83.3,290317,0.0,E,A*28

$GPGSA,A,2,05,07,08,13,28,30,,,,,,,1.2,0.9,0.8*30

$GNGSA,A,2,05,07,08,13,28,30,,,,,,,1.2,0.9,0.8*2E

$GNGSA,A,2,70,71,72,73,81,,,,,,,,1.2,0.9,0.8*26

$GPGSV,3,1,12,05,13.4,260.2,21.7,07,45.7,95.6,17.4,08,31.6,52.0,19.3,13,32.3,309.4,32.5*7A

$GPGSV,3,2,12,15,2.8,322.0,21.8,17,10.5,182.8,19.8,28,68.9,244.7,35.0,30,79.5,14.1,21.3*7E

$GPGSV,3,3,12,09,14.8,160.3,,11,19.7,102.7,,20,7.7,308.0,,27,3.5,30.9,*41

$GLGSV,3,1,10,74,6.3,275.6,13.1,70,20.4,213.8,20.6,82,40.1,84.4,19.6,73,55.5,312.2,20.1*61

$GLGSV,3,2,10,80,50.6,52.0,19.1,81,19.7,29.5,22.3,71,40.8,270.0,23.9,72,21.1,327.7,28.8*68

$GLGSV,3,3,10,79,0.7,83.0,,83,19.7,143.4,*60

$GPGGA,220644.0,4532.010823,N,12241.158624,W,1,06,0.9,33.9,M,-18.0,M,,*5A

$PQXFI,220644.0,4532.010823,N,12241.158624,W,33.9,15.04,11.88,0.57*40

$GNGNS,220644.0,4532.010823,N,12241.158624,W,AA,11,0.9,33.9,-18.0,,*68

$GPVTG,83.3,T,83.3,M,0.0,N,0.0,K,A*23

$GPRMC,220644.0,A,4532.010823,N,12241.158624,W,0.0,83.3,290317,0.0,E,A*27

$GPGSA,A,2,05,07,08,13,28,30,,,,,,,1.2,0.9,0.8*30

$GNGSA,A,2,05,07,08,13,28,30,,,,,,,1.2,0.9,0.8*2E

$GNGSA,A,2,70,71,72,81,82,,,,,,,,1.2,0.9,0.8*28

$GPGSV,3,1,12,05,13.4,260.2,20.8,07,45.7,95.6,17.4,08,31.6,52.0,19.3,13,32.3,309.4,33.3*73

$GPGSV,3,2,12,15,2.8,322.0,22.2,17,10.5,182.8,20.5,28,68.9,244.7,35.1,30,79.5,14.1,21.5*77

$GPGSV,3,3,12,09,14.8,160.3,,11,19.7,102.7,,20,7.7,308.0,,27,3.5,30.9,*41

$GLGSV,3,1,10,74,6.3,275.6,13.1,70,20.4,213.8,20.6,82,40.1,84.4,19.2,73,55.5,312.2,13.1*65

$GLGSV,3,2,10,80,50.6,52.0,19.2,81,19.7,29.5,21.8,71,40.8,270.0,25.5,72,21.1,327.7,28.4*65

$GLGSV,3,3,10,79,0.7,83.0,,83,19.7,143.4,*60

$GPGGA,220645.0,4532.010823,N,12241.158625,W,1,06,0.9,33.9,M,-18.0,M,,*5A

$PQXFI,220645.0,4532.010823,N,12241.158625,W,33.9,15.38,12.03,0.56*4E

$GNGNS,220645.0,4532.010823,N,12241.158625,W,AA,12,0.9,33.9,-18.0,,*6B

$GPVTG,83.3,T,83.3,M,0.0,N,0.0,K,A*23

$GPRMC,220645.0,A,4532.010823,N,12241.158625,W,0.0,83.3,290317,0.0,E,A*27

$GPGSA,A,2,05,07,08,13,28,30,,,,,,,1.2,0.9,0.8*30

$GNGSA,A,2,05,07,08,13,28,30,,,,,,,1.2,0.9,0.8*2E

$GNGSA,A,2,70,71,72,73,81,82,,,,,,,1.2,0.9,0.8*2C

$GPGSV,3,1,12,05,13.4,260.2,19.5,07,45.7,95.6,17.4,08,31.6,52.0,19.3,13,32.3,309.4,32.6*70

$GPGSV,3,2,12,15,2.8,322.0,23.1,17,10.5,182.8,20.5,28,68.9,244.7,35.1,30,79.5,14.1,23.6*74

$GPGSV,3,3,12,09,14.8,160.3,,11,19.7,102.7,,20,7.7,308.0,,27,3.5,30.9,*41

$GLGSV,3,1,10,74,6.3,275.6,13.1,70,20.4,213.8,19.1,82,40.1,84.4,19.6,73,55.5,312.2,13.1*6C

$GLGSV,3,2,10,80,50.6,52.0,19.2,81,19.7,29.5,22.4,71,40.8,270.0,25.0,72,21.1,327.7,27.3*67

$GLGSV,3,3,10,79,0.7,83.0,,83,19.7,143.4,*60

$GPGGA,220646.0,4532.010825,N,12241.158627,W,1,05,0.9,33.9,M,-18.0,M,,*5E

$PQXFI,220646.0,4532.010825,N,12241.158627,W,33.9,15.19,11.71,0.58*42

$GNGNS,220646.0,4532.010825,N,12241.158627,W,AA,11,0.9,33.9,-18.0,,*6F

$GPVTG,83.3,T,83.3,M,0.0,N,0.0,K,A*23

$GPRMC,220646.0,A,4532.010825,N,12241.158627,W,0.0,83.3,290317,0.0,E,A*20

$GPGSA,A,2,05,07,13,28,30,,,,,,,,1.2,0.9,0.8*38

$GNGSA,A,2,05,07,13,28,30,,,,,,,,1.2,0.9,0.8*26

$GNGSA,A,2,70,71,72,73,81,82,,,,,,,1.2,0.9,0.8*2C

$GPGSV,3,1,12,05,13.4,260.2,21.7,07,45.7,95.6,16.3,08,31.6,52.0,19.3,13,32.3,309.4,32.9*70

$GPGSV,3,2,12,15,2.8,322.0,23.7,17,10.5,182.8,19.9,28,68.9,244.7,35.0,30,79.5,14.1,22.6*74

$GPGSV,3,3,12,09,14.8,160.3,,11,19.7,102.7,,20,7.7,308.0,,27,3.5,30.9,*41

$GLGSV,3,1,10,74,6.3,275.6,13.1,70,20.4,213.8,19.1,82,40.1,84.4,20.1,73,55.5,312.2,13.1*61

$GLGSV,3,2,10,80,50.6,52.0,19.2,81,19.7,29.5,21.6,71,40.8,270.0,25.0,72,21.1,327.7,26.4*60

$GLGSV,3,3,10,79,0.7,83.0,,83,19.7,143.4,*60

